name,state,established,discontinued,latitude,longitude
AARONSBURG,PA,1792,NA,40.8989672,-77.4521993
ABBOTT,AL,1886,1909,NA,NA
ABBOTT'S CORNERS,NY,1871,1891,NA,NA
ABERDEEN,PA,1898,1910,41.3586944,-75.4937961
ABINGTON,PA,1832,NA,40.1217074,-75.1190778
ACAHELA,PA,1930,1944,NA,NA
ACCORD,MA,1900,1968,42.1750522,-70.8879084
ACIE,AR,1910,1911,NA,NA
ACORN,AR,1892,1915,34.6428825,-94.2010437
ACTON,MA,1810,NA,42.4878373,-71.4246283
ACUSHNET,MA,1864,1907,41.6809264,-70.9090113
ADAMS RUN,SC,1843,NA,32.7200687,-80.34813
ADDISON,ME,1900,NA,44.6185708,-67.7450494
ADELIA,PA,1903,1934,NA,NA
ADEN,NY,1901,1919,41.8606459,-74.6732145
ADLER,AR,1881,1884,NA,NA
ADOX,MO,1884,1886,NA,NA
AFTON,TN,1891,1899,NA,NA
AGATE,GA,1881,1933,34.1650961,-85.2632862
AGATHA,MS,1906,1909,NA,NA
AGEE,MO,1894,1897,NA,NA
AGENCY,MS,1892,1907,33.3584561,-88.706161
AIDEN LAIR,NY,1868,1873,43.8717294,-74.0026389
AIR LINE,GA,1856,1907,34.3626042,-83.0304246
AJAX,TN,1900,1901,NA,NA
AKARD,MO,1890,1907,37.7067052,-93.7477089
AKERVILLE,AR,1848,1849,NA,NA
AKIN,GA,1900,1903,NA,NA
AKIN,NY,1882,1912,42.9584075,-74.2329093
ALACULSY,GA,1878,1914,34.9886889,-84.6329894
ALAHA,LA,1904,1904,31.5832265,-92.7723743
ALAMEDA,PA,1893,1893,NA,NA
ALBANY,MO,1857,NA,40.2476118,-94.3315187
ALBEMARLE,MS,1851,1856,NA,NA
ALBION,SC,1837,1914,NA,NA
ALEXANDRIA CENTRE,NY,1843,1855,44.3075516,-75.8760616
ALEXIS,LA,1817,1820,NA,NA
ALLANDALE,MS,1896,1903,33.3945657,-88.5311548
ALLENDALE,MO,1856,NA,40.4840218,-94.2891965
ALLENDALE,SC,1866,1919,NA,NA
ALLENSBURG,MS,1894,1903,34.1339973,-88.5961597
ALLPORT,PA,1885,NA,40.9648738,-78.2017184
ALLULA,AL,1883,1905,33.8237101,-86.1699754
ALPHA,LA,1857,1880,NA,NA
ALPINE,FL,1888,1899,NA,NA
ALPLAUS,NY,1888,1973,42.8553542,-73.8990122
ALPS,GA,1890,1910,33.1481788,-84.6032609
ALSACE MILLS,PA,1839,1839,NA,NA
ALSATIA,LA,1901,1945,32.6129138,-91.1823318
ALTA,ME,1900,1910,NA,NA
ALTAMONT,FL,1874,1891,28.6807962,-81.3717315
ALTENBERG,MO,1854,NA,37.629374,-89.5891521
ALTO,TN,1860,1942,35.2706368,-85.953036
ALTO,GA,1879,NA,34.4677724,-83.573702
ALTON PARK,TN,1895,1920,35.0031308,-85.3166241
ALTONA,NY,1858,NA,44.8883812,-73.6561723
ALTOONA,AL,1900,NA,34.0278486,-86.3246152
ALUM,AR,1902,1930,34.5945361,-92.7279439
ALVIN,MO,1899,1901,38.5111357,-92.7576927
AMELIA,AR,1887,1893,NA,NA
AMES,FL,1912,1914,NA,NA
AMHERST,MA,1806,NA,42.3693952,-72.5342168
AMHERST,NH,1791,NA,NA,NA
AMITY,CT,1873,1900,41.357597,-73.0076052
AMWELL,NJ,1814,1823,40.4314941,-74.7521061
ANCHOR,LA,1888,1930,30.6835189,-91.3551114
ANDALUSIA,TN,1852,1859,NA,NA
ANDEREW'S INSTITUTE,AL,1876,1895,34.3195361,-85.8694147
ANDOVER,SC,1891,1904,35.079282,-82.2056676
ANDRAE,MO,1889,1895,NA,NA
ANDREAS,PA,1885,NA,40.7515325,-75.792332
ANGLETON,TN,1844,1886,NA,NA
ANGUILLA,MS,1884,NA,32.9746892,-90.8295503
ANSON,ME,1811,1845,44.7971024,-69.8906475
ANTHONY,NJ,1863,1906,40.7484331,-74.8812788
ANTIOCH,SC,1846,1879,34.8701406,-81.116747
ANUTT,MO,1890,1963,37.7158757,-91.7198751
ANVIL,AR,1888,1917,NA,NA
APPLE GROVE,TN,1898,1903,NA,NA
APPLING,GA,1799,NA,33.5349015,-82.3141824
APPLING,NY,1827,1856,NA,NA
AQUILLA,MO,1892,1908,36.9469955,-89.9148125
ARCADIA,TN,1846,1917,36.5853795,-82.4579255
ARCADIA,AR,1888,1903,33.842332999999996,-93.4660093
ARCHER,TN,1887,1905,35.3281321,-86.7597215
ARCOLA,AL,1890,1901,NA,NA
ARCTIC,GA,1888,1891,NA,NA
ARDEE,NY,1882,1889,NA,NA
ARDSLEY,NY,1883,NA,41.0190537,-73.8431686
ARGENTINE,PA,1884,1957,41.0942287,-79.8192186
ARGYLE,LA,1910,1914,30.6585213,-91.6440032
ARGYLE,GA,1882,NA,31.0750211,-82.6484534
ARIZONA,LA,1925,1954,32.7890359,-92.9576596
ARK,MO,1901,1915,37.6811563,-91.3359731
ARK,AR,1851,1853,NA,NA
ARKSILL,PA,1900,1903,NA,NA
ARKWRIGHT,AL,1909,1926,33.3714987,-86.4024794
ARLINGTON,FL,1912,1954,30.3527117,-81.5682638
ARLINGTON,GA,1872,NA,31.4395121,-84.7259148
ARMENIA,PA,1884,1887,41.7381162,-76.86383
ARMINDA,MO,1855,1856,NA,NA
ASBURY,NY,1873,1902,42.5267389,-76.4918843
ASHBURN,TN,1892,1907,36.6211544,-86.8286084
ASHLAND,TN,1839,1874,35.4361861,-87.6675221
ASHLAND,PA,1844,1858,NA,NA
ASHRIDGE,LA,1916,1919,31.0682333,-91.6303964
ASHTOLA,PA,1898,1914,40.1970217,-78.7797429
ASHTON,NY,1882,1883,NA,NA
ASHWOOD,MS,1908,1912,31.0448982,-91.297055
ASTICOU,ME,1888,1923,44.3039689,-68.2816823
ASTORIA,NY,1842,1888,40.7692967,-73.9279906
ATHA,GA,1897,1897,NA,NA
ATHENS,AR,1842,1847,36.0589532,-92.0723678
ATKEISON,AL,1889,1923,31.9654289,-87.6863921
AUBURN,GA,1837,NA,34.0101325,-83.8232759
AUCSBURG,AR,1884,1905,35.4145271,-93.2382324
AUDLEY,AR,1887,1902,NA,NA
AURORA,MO,1838,1839,39.3175002,-94.8774628
AURORA,AR,1873,1968,35.9972994,-93.7026908
AURORA,FL,1904,1905,NA,NA
AUSTIN'S SPRINGS,TN,1875,1900,36.3831607,-82.3493061
AUSTINVILLE,FL,1855,1867,NA,NA
AUSTINVILLE,PA,1861,1904,41.8389632,-76.8738485
AVALON,PA,1888,1897,40.5009019,-80.0675554
AVARD,LA,1905,1908,32.3061313,-92.4508832
AVERIT,LA,1883,1889,32.5168144,-92.4334765
AVOCA,NY,1828,NA,42.4081788,-77.4208501
AVON,PA,1863,1951,40.3456474,-76.3899594
AXTON,NY,1892,1909,44.2028365,-74.3287745
AYCOCK,GA,1894,1901,33.7654712,-83.6488335
AYO,MO,1915,1921,NA,NA
AYRSHIRE,AL,1888,1905,NA,NA
BACK RIVER,ME,1897,1907,NA,NA
BADEN,PA,1852,NA,40.6357227,-80.2283367
BAIDLAND,PA,1887,1900,40.1947931,-79.970884
BAILEY,MO,1884,1914,37.6858754,-92.1965534
BAILEY HOLLOW,PA,1854,1871,NA,NA
BAILEY'S MILLS,GA,1855,1855,NA,NA
BAKER,AL,1904,1905,NA,NA
BALAYTOWN,AR,1910,1911,NA,NA
BALBOA,AR,1897,1918,36.0325714,-91.5004146
BALDWIN,FL,1857,NA,30.3012296,-81.9753458
BALDWIN,NY,1899,NA,40.6557707,-73.6103387
BALKUM,AL,1883,1903,31.4176722,-85.2274324
BALLIGOMINGO,PA,1833,1835,NA,NA
BAMBER,NJ,1873,1900,39.9026179,-74.3220901
BANTAM,CT,1884,NA,41.7245409,-73.2362262
BAR HARBOR,ME,1835,NA,44.3895939,-68.2073872
BARCELONA,LA,1894,1903,31.852661,-91.4228949
BARDIN,FL,1900,1906,29.7144119,-81.7248089
BARETOWN,NY,1891,1896,43.3509028,-75.4540645
BARGE'S,AL,1828,1853,NA,NA
BARIFIELDS POINT,AR,1836,1846,35.8236874,-89.7206355
BARK CAMP,GA,1826,1845,32.8823777,-82.2006776
BARKLEYS,MS,1902,1907,NA,NA
BARKSDALE,GA,1896,1904,NA,NA
BARLOW BEND,AL,1877,1976,31.4546085,-87.6347145
BARNES STORE,MS,1854,1874,34.5681515,-88.2611555
BARNETT,LA,1905,1909,NA,NA
BARNEY,AR,1890,1906,35.2517499,-92.2068171
BARR,PA,1872,1903,40.6631242,-77.6766619
BARREE,PA,1910,1986,40.5853461,-78.1005628
BARREN HILL,PA,1826,1883,40.0873326,-75.2629576
BARRENS,MO,1820,1821,NA,NA
BARRETT,ME,1901,1907,NA,NA
BARROWDALE,SC,1840,1844,NA,NA
BARRY COURT HOUSE,MO,1845,1845,36.7099124,-93.8290683
BART,PA,1823,NA,39.9382625,-76.0832499
BARTON,SC,1895,1898,NA,NA
BASHAMS MILLS,AR,1849,1853,NA,NA
BASHOR'S MILL,TN,1879,1899,36.346215,-82.5440377
BASS',MO,1829,1830,NA,NA
BASSVILLE,FL,1873,1874,NA,NA
BATCHELLERVILLE,NY,1858,1914,43.211739,-74.0817962
BATES,NY,1881,1913,42.4464677,-74.2743082
BATESVILLE,MS,1870,NA,34.3152572,-89.9202682
BATON,TN,1900,1902,NA,NA
BATSON,TN,1829,1905,NA,NA
BATTONVILLE,FL,1875,1883,NA,NA
BAUGH,GA,1896,1896,NA,NA
BAXTER,FL,1893,1896,NA,NA
BAY,AR,1884,NA,35.7443514,-90.5635169
BAY POINT,ME,1889,1937,43.7564735,-69.7747677
BAY RIDGE,NY,1858,1896,40.6394407,-74.0087724
BAYCHESTER,NY,1888,1895,NA,NA
BAYONNE,FL,1904,1907,NA,NA
BAYOU DE ROCHE,AR,1832,1837,NA,NA
BAYOU LA BATRE,AL,1860,NA,30.3993646,-88.248271
BAYWOOD,LA,1892,1954,30.6910181,-90.8831565
BAZZATE,AL,1905,1909,NA,NA
BEACH,LA,1890,1891,NA,NA
BEALL,AR,1888,1910,NA,NA
BEALL,MS,1901,1906,31.2390633,-90.7917694
BEAN,ME,1895,1900,NA,NA
BEANS CORNER,ME,1900,1903,44.5778401,-70.175338
BEAN'S CREEK,TN,1814,1956,35.0617526,-86.246654
BEARD,AL,1905,1907,34.3892583,-86.3691513
BEASLEY,AL,1882,1888,33.7575995,-85.9816363
BEAUMONT,GA,1894,1902,34.8381332,-85.1918973
BEAVER FALLS,NY,1866,NA,43.8860753,-75.4303994
BECKS MILLS,PA,1858,1900,NA,NA
BECKERS CORNERS,NY,1873,1900,42.5484135,-73.8109566
BECKERSVILLE,PA,1852,1906,40.2312043,-75.9074302
BECKHAM'S CROSS ROADS,GA,1856,1859,NA,NA
BECKWORTH,LA,1859,1895,NA,NA
BEECH GROVE,AR,1901,NA,36.1739399,-90.6181829
BEECH ISLAND,SC,1873,1904,33.4273614,-81.8909473
BEECH WOOD,PA,1865,1910,41.4850624,-78.390849
BEECHVIEW,PA,1906,1909,40.4106249,-80.0247758
BEEKMAN,NY,1821,1903,41.6109269,-73.7129076
BEESLEYS POINT,NJ,1851,1934,39.276782,-74.6362695
BEGLEY,AR,1923,1933,35.885631,-92.5337727
BEIDLEMAN'S,TN,1888,1901,36.5198306,-82.1304072
BELCHER,GA,1889,1890,NA,NA
BELFAST,SC,1888,1902,NA,NA
BELGRADE MILLS,ME,1829,1901,NA,NA
BELL,AL,1894,1904,NA,NA
BELLASYLVIA,PA,1854,1908,41.4570211,-76.2388227
BELLE RIVER,LA,1915,1916,NA,NA
BELLMONT,GA,1886,1908,34.185661,-83.761284
BELL'S MILL,MO,1875,1876,NA,NA
BELL'S MILL,FL,1885,1889,NA,NA
BELLVIEW,PA,1846,1871,NA,NA
BELLVILLE,PA,1800,NA,40.6079331,-77.716593
BELMONT,MS,1873,NA,34.5082696,-88.2082587
BELMONTAINE,TN,1833,1833,NA,NA
BELOIT,GA,1892,1903,31.6737843,-84.0768505
BELVIDERE CENTER,VT,1887,1987,44.7500487,-72.6912337
BEMUS HEIGHTS,NY,1834,1929,42.9711878,-73.6334505
BEN HUR,AR,1908,1975,35.730357,-92.9729501
BENDERTOWN,PA,1893,1905,41.1486952,-76.3168825
BENNETT,AL,1898,1900,30.6182476,-87.7530454
BENNINGTON,NY,1818,1917,42.8370044,-78.3975195
BENSON,AL,1860,1867,NA,NA
BENSON,AL,1906,1930,32.7642951,-85.8771827
BENSON,NY,1833,1931,NA,NA
BENTLY CREEK,PA,1850,1904,41.946463,-76.7132854
BENTLEY,LA,1906,NA,31.5154546,-92.4954182
BENTLY,GA,1905,1907,NA,NA
BENTON,MO,1823,NA,37.0967562,-89.5628101
BENTON,GA,1841,1844,NA,NA
BENTON,PA,1835,NA,41.1970514,-76.3847786
BENTON HILL,TN,1860,1866,NA,NA
BERA,AL,1880,1905,33.7062124,-85.9255235
BERGANOT,PA,1891,1896,NA,NA
BERGEY,PA,1889,1959,40.3023243,-75.4226771
BERKLEY,MA,1818,1895,41.8459347,-71.0828222
BERLIN,MO,1857,1859,NA,NA
BERLIN MILLS STATION,NH,1913,1938,NA,NA
BERNE,GA,1869,1874,NA,NA
BERNHEIMER,MO,1893,1945,38.6681031,-91.2548769
BERNICE,PA,1871,1919,41.470354,-76.3816072
BERNITA,GA,1900,1904,NA,NA
BERRIEN,GA,1845,1848,NA,NA
BERRY,AL,1903,NA,33.6578843,-87.6044765
BERRYSBURG,PA,1828,NA,40.6026225,-76.8137565
BERWICK,MO,1892,1908,36.933119,-94.0946568
BERWICK BRANCH,ME,1885,1912,43.2770299,-70.6839438
BESEMER'S DEPOT,NY,1876,1883,NA,NA
BETA,TN,1890,1905,35.4264604,-84.8707804
BETHLEHEM HOLLOW,NH,1873,1880,NA,NA
BETHPAGE,NY,1936,NA,40.7337953,-73.4939258
BEVILL,AL,1895,1918,32.2795864,-88.120021
BEW SPRINGS,MS,1909,1918,33.7862267,-89.8948087
BEWELCOME,MS,1891,1927,31.2187849,-90.938714
BEX,MO,1881,1882,NA,NA
BEXAR,AR,1890,NA,36.2867328,-91.9957071
BIG CREEK,GA,1846,1910,34.1164874,-84.1751948
BIG CREEK,MS,1846,NA,33.8526147,-89.4111867
BIG ROCK,MO,1912,1915,NA,NA
BIG ROCK,TN,1878,NA,36.5813382,-87.759524
BIGBY,AR,1900,1912,NA,NA
BILLING'S CAMP,PA,1879,1880,NA,NA
BIRD,AL,1890,1904,34.0298194,-86.3891503
BIRDSALL CENTRE,NY,1858,1860,NA,NA
BIRDSONG,AR,1917,1931,35.4584169,-90.2625967
BIRTA,AR,1804,1953,35.0173117,-93.1335098
BISSELL,AL,1893,1914,33.9989892,-85.4241229
BITHLO,FL,1922,1953,28.5547225,-81.106452
BLACK HAWK,LA,1871,1924,31.1557322,-91.6359525
BLACK JACK,MS,1873,1882,34.8770373,-89.084788
BLACK RIVER,SC,1854,1867,NA,NA
BLACK MILLS,NJ,1840,1894,40.3047568,-74.3473315
BLACKBERRY HILL,ME,1827,1829,NA,NA
BLAINE,ME,1874,NA,46.5129565,-67.8662872
BLAKELY,AL,1826,1866,30.7421332,-87.9241622
BLAKEVILLE,NH,1861,1871,NA,NA
BLAND,AR,1846,1928,34.687036,-92.6879424
BLAZE,TN,1886,1886,NA,NA
BLEDSOE,AL,1991,1898,33.4720516,-86.1133052
BLEDSOE'S LANDING,AR,1849,1866,NA,NA
BLIND HARTMAN,PA,1879,1880,NA,NA
BLOODY BROOK,MA,1823,1834,42.4727315,-72.6023625
BLOOMFIELD CENTRE,NY,1833,1840,42.8975641,-77.4269346
BLOOMINGDALE,NJ,1847,NA,41.0038865,-74.3332504
BLOOMINGTON,AR,1858,1881,36.2520916,-94.1329351
BLOOMSBURY,NJ,1816,NA,40.6547426,-75.0837919
BLOUNT,GA,1887,1906,33.1804026,-83.9593539
BLOUNT'S CREEK,TN,1836,1838,NA,NA
BLOUNTSVILLE,AL,1825,NA,34.0840768,-86.590481
BLUE,TN,1898,1904,NA,NA
BLUE ANCHOR,NJ,1891,1921,39.6895606,-74.8826645
BLUE CREEK,AL,1849,1854,NA,NA
BLUE GEM,TN,1904,1916,35.9964655,-84.4527099
BLUE MOUNTAIN,AL,1860,1871,33.6877176,-85.8246064
BLUE POINT,NY,1856,NA,40.7579607,-73.0337819
BLUE RIDGE,GA,1848,NA,34.8733487,-84.3006063
BLUE SPRING,AL,1850,1894,34.6284248,-86.6533282
BLYTHES,AR,1836,1837,NA,NA
BOARDMAN,CT,1897,1920,41.5939833,-73.4484557
BOAZ,MO,1853,1859,NA,NA
BODMAN,AR,1886,1897,NA,NA
BOEGERS,MO,1897,1897,NA,NA
BOGGY,AR,1890,1904,33.2248512,-93.8868476
BOLES,MO,1864,1939,38.5308857,-90.8901376
BOLTON,CT,1812,1942,41.7909461,-72.4420995
BON SECOURS,AL,1878,1881,30.3154785,-87.7294316
BONESVILLE,GA,1872,1873,33.4334717,-82.438738
BONNY EAGLE,ME,1853,1919,43.6972643,-70.5989346
BOOK,LA,1934,1966,31.3374015,-91.8715132
BOOKOUT,TN,1900,1902,36.1295173,-83.9782418
BOON'S LANDING,LA,1854,1854,NA,NA
BOQUEHOMO,MS,1839,1841,31.7954364,-88.9906084
BORDELONVILLE,LA,1876,NA,31.1051847,-91.908455
BORDOVILLE,VT,1868,1888,44.8433805,-72.818744
BORLAND,MO,1894,1899,38.9597328,-93.723551
BOSMAN'S STORE,AL,1822,1822,NA,NA
BOSTON,SC,1872,1873,NA,NA
BOUDREAUX,LA,1901,1915,29.414942,-90.7000895
BOUGERE,LA,1876,1922,31.2829524,-91.6273421
BOUGHER,NJ,1889,1917,39.9934454,-74.8796102
BOURBOIS,MO,1870,1901,38.3872703,-91.4009896
BOWDEN,AL,1900,1904,33.3392792,-85.8435745
BOWLING BROOK,MO,1868,1871,NA,NA
BOXFORD,MO,1854,1902,39.8483293,-94.588569
BOXLEY,AR,1883,1955,35.9767442,-93.4021272
BOY,TN,1880,1902,36.3509119,-84.0321429
BOYCE,AR,1888,1890,NA,NA
BOYCE STATION,PA,1890,1918,NA,NA
BOYDELL,AR,1914,1974,33.3656717,-91.4912323
BOYDS,PA,1891,1903,39.8595398,-77.2366508
BOYERS MILL,MO,1878,1880,NA,NA
BOYLE'S STORE,TN,1832,1836,NA,NA
BOYLSTON,NY,1852,1867,43.6564577,-75.9985315
BOZEMAN,MS,1893,1906,NA,NA
BRADBURN,AR,1899,1899,NA,NA
BRADDOCK,PA,1878,NA,40.3978306,-79.8616605
BRADFORD,AL,1828,1828,33.7520454,-86.7038799
BRADFORD,ME,1832,NA,45.0735682,-68.8952341
BRADFORD CENTER,VT,1847,1903,44.0131219,-72.1706475
BRADLEY,TN,1906,1911,NA,NA
BRAINARD STATION,NY,1881,1944,42.4959149,-73.5120564
BRAMAN,PA,1882,1919,41.8175881,-75.1618372
BRANCH,VT,1883,1918,44.631718,-72.425942
BRANCH ISLAND,SC,1851,1866,NA,NA
BRANCH JUNCTION,PA,1854,1894,NA,NA
BRANDON DEPOT,MS,1913,1917,32.2876464,-89.9956385
BRANFORD,CT,1807,NA,41.2831416,-72.8127659
BRANUM,MO,1901,1909,36.0009039,-90.1095377
BRASWELL,FL,1913,1914,NA,NA
BRAZEAU,MO,1879,NA,37.6611623,-89.6528785
BREAUX BRIDGE,LA,1837,NA,30.2815166,-91.9015479
BREDEN,FL,1880,1885,NA,NA
BRELAND,MS,1900,1902,NA,NA
BRENT,AL,1899,NA,32.9360404,-87.1654003
BRESLAU,NY,1870,1891,40.6867667,-73.3734547
BREVARD,TN,1898,1906,NA,NA
BREWER,GA,1898,1899,NA,NA
BREWSTERTOWN,TN,1929,1937,36.3447971,-84.7249436
BRICE,LA,1891,1893,32.4498762,-92.9832155
BRIDGE,GA,1887,1909,NA,NA
BRIDGE CREEK,MO,1870,1884,39.5722441,-93.384654
BRIDGE VALLEY,PA,1845,1912,40.2795515,-75.0843372
BRIDGECREEK,FL,1887,1902,NA,NA
BRIDGEPORT,NJ,1844,NA,39.8011574,-75.3422409
BRIDGEWATER,NH,1831,1945,43.6384067,-71.7364678
BRIGANTINE,NJ,1881,NA,39.3918769,-74.3970523
BRIGGS,PA,1894,1894,NA,NA
BRIGHTON,MO,1852,NA,37.4586122,-93.3483233
BRIGHTON,VT,1849,1853,44.8217264,-71.8936887
BRIMMERSVILLE,NY,1839,1848,NA,NA
BRINGIERS,LA,1828,1847,NA,NA
BRINKERTON,PA,1855,1906,41.0772866,-79.3594865
BRISBIN,PA,1883,NA,40.8353572,-78.3496523
BRISTOL,RI,1773,NA,41.6710125,-71.2771064
BRISTOL FERRY,RI,1883,1964,41.6326021,-71.2536592
BRITISH,AL,1895,1902,NA,NA
BRITTS LANDING,TN,1856,1920,35.7881206,-87.9741978
BROAD BROOK,CT,1836,NA,41.9164115,-72.5455389
BROADTON,TN,1884,1885,NA,NA
BROCKTON,AL,1884,1890,33.6901097,-87.8891877
BRODER,PA,1890,1892,NA,NA
BRODIES LANDING,TN,1853,1896,35.7164555,-88.0372552
BRONXVILLE,NY,1852,1911,40.9386858,-73.8321369
BROOK,NY,1894,1904,NA,NA
BROOKLYN,AL,1827,NA,31.2626708,-86.7710749
BROOKLYN,NY,1803,NA,40.6501038,-73.9495823
BROOKS STATION,MA,1877,1916,42.4139799,-71.8981295
BROOKS TANYARD,TN,1849,1866,NA,NA
BROOKTONDALE,NY,1926,NA,42.3820645,-76.3996287
BROOM,AR,1909,1915,35.9200734,-91.1215139
BROOME,NY,1810,1836,42.5027483,-74.292292
BROWN CREEK,SC,1889,1892,NA,NA
BROWN PLACE,TN,1902,1928,NA,NA
BROWNTOWN,PA,1839,1883,41.6509087,-76.2402112
BRUCE,LA,1881,1883,NA,NA
BRUCE,AR,1901,1910,NA,NA
BRUCETON,TN,1925,NA,36.0408706,-88.2443439
BRUNSON,SC,1872,NA,32.9260419,-81.1888853
BRUNSON'S,TN,1829,1839,NA,NA
BRUNSWICK,TN,1880,NA,35.2671689,-89.7713283
BRUSHYKNOB,MO,1903,1967,36.9650549,-92.4862764
BRUSSELLS,MO,1876,1907,39.0508817,-90.8790216
BRYANT,FL,1897,1901,NA,NA
BUCHANANSVILLE,TN,1837,1842,NA,NA
BUCK MOUNTAIN,PA,1885,1942,40.8211991,-76.0988228
BUCKHEAD,GA,1831,NA,33.5684216,-83.3629571
BUCKHORN,FL,1890,1910,NA,NA
BUFFALO BLUFF,FL,1869,1908,29.5796918,-81.6736928
BULLION,PA,1877,1915,41.2464483,-79.8975548
BUMPNOSE,FL,1896,1899,NA,NA
BUNDICK,LA,1894,1929,30.7124186,-93.0446003
BURDEN,NY,1883,1903,42.1589778,-73.827351
BURGESS,LA,1907,1915,NA,NA
BURKE STATION,LA,1883,1896,30.0610359,-91.8820627
BURKVILLE,AL,1875,1987,32.3281945,-86.5371975
BURL,AL,1914,1958,31.8676513,-87.1649863
BURLEIGH,NJ,1886,1909,39.0456688,-74.8515578
BURNS,GA,1886,1897,32.5416247,-83.3858565
BURN'S STORE,TN,1837,1837,NA,NA
BURR FERRY,LA,1847,1933,31.0663019,-93.4960046
BURRELL,PA,1857,1902,40.4170131,-79.2661467
BURRVILLE,TN,1890,1981,36.2936857,-84.7513344
BUSHNELL BASIN,NY,1826,1900,43.0595075,-77.4741613
BUTLER,NY,1828,1856,43.1743949,-76.7682932
BUTLER'S CREEK,MO,1854,1856,NA,NA
BUTTON,SC,1896,1899,32.4388667,-80.7035869
BUZZARD'S ROOST,TN,1881,1886,NA,NA
BYRNESVILLE,MO,1875,1907,38.3928316,-90.6398495
BYWY,MS,1880,1903,33.4373452,-89.2411782
CABBAGE BLUFF,FL,1872,1876,NA,NA
CABLES VALLEY,TN,1855,1866,NA,NA
CABOOL,AR,1905,1914,34.0334333,-92.1501444
CADDY'S FERRY,LA,1804,1811,NA,NA
CADIZ,GA,1884,1902,NA,NA
CADOSIA,NY,1886,1986,41.9759199,-75.2668384
CAILE,MS,1903,1906,33.3001213,-90.5900912
CAINHOY,SC,1880,1880,NA,NA
CAINLAND,AL,1854,1861,NA,NA
CALAMINE,AR,1871,1967,36.0114607,-91.4001339
CALEB,TN,1884,1884,NA,NA
CALEBEE,AL,1841,1907,32.3854176,-85.8844011
CALHOUN FALLS,SC,1892,NA,34.0923375,-82.5956875
CALL,FL,1892,1913,NA,NA
CALLAO,MS,1888,1911,NA,NA
CALVERT,AL,1888,NA,31.1575663,-88.0097609
CAMBRAY,NY,1807,1818,44.3348951,-75.4658258
CAMERON,AR,1883,1887,NA,NA
CAMERONVILLE,SC,1859,1860,NA,NA
CAMP HUGH,AL,1913,1931,32.9684572,-87.3841682
CAMPBELL,PA,1837,1839,NA,NA
CAMPBELL HALL,NY,1869,NA,41.4548106,-74.2584214
CAMPOBELLO SPRINGS,SC,1917,1918,NA,NA
CANADA ROAD,ME,1868,1881,NA,NA
CANADIAN,AR,1832,1852,35.9184903,-89.7466152
CANADY,MO,1904,1927,36.1645138,-89.7536935
CANAL PORT,PA,1826,1827,NA,NA
CANEYSPRING,TN,1830,1936,35.607292,-86.7630544
CANTATOE,NY,1834,1846,NA,NA
CANTEY,SC,1884,1921,34.3445939,-80.6784123
CAPE ELIZABETH,ME,1889,1901,43.563696,-70.2000467
CAPERTON,AR,1898,1909,NA,NA
CARBON RUN,PA,1874,1884,NA,NA
CARDINAL,MO,1880,1883,NA,NA
CARICO,MO,1921,1928,36.7945041,-93.4112992
CARMEL,TN,1832,1833,35.598682,-86.3941598
CARMEL,NY,1815,NA,41.4281956,-73.6771916
CARMEL HILL,SC,1827,1876,NA,NA
CARMICHAEL,SC,1888,1892,NA,NA
CAROLINA,RI,1879,NA,41.4540702,-71.6624062
CAROLINA MILLS,RI,1850,1879,41.4540702,-71.6624062
CAROLINE DEPOT,NY,1860,1951,42.3700732,-76.4035486
CARROLL,LA,1901,1932,32.0787716,-93.3915622
CARROLLTON,MO,1834,NA,39.3594298,-93.4972259
CARROLTON,AL,1819,1821,33.4684405,-86.87138
CARR'S,TN,1838,1841,NA,NA
CARSONS LANDING,MS,1858,1878,33.9923294,-90.9709409
CARTER'S CREEK,TN,1837,1848,NA,NA
CARTERSVILLE,AL,1899,1901,NA,NA
CARTHAGE,NY,1816,NA,43.9803642,-75.6071598
CARVER,MO,1900,1930,38.1800297,-92.9457488
CARVERTON,PA,1844,1906,41.3373021,-75.8649184
CASTLE COVE,MA,1886,1886,NA,NA
CASTLETON,NY,1817,1926,42.5184143,-73.7512325
CATARACT,PA,1887,1902,41.1458932,-78.0552823
CATAWISSA,PA,1823,NA,40.9530977,-76.4616677
CATAWISSA VALLEY,PA,1836,1854,NA,NA
CATHERINE,MO,1890,1908,38.0033646,-93.5882622
CATHWOOD,SC,1884,1898,33.3443093,-81.8442804
CATLETTSBURGH,TN,1875,1901,35.9045336,-83.5810032
CATOMA,AL,1860,1898,32.3134729,-86.4335833
CATON,NY,1848,1908,42.0561853,-77.0277448
CATOURAH,SC,1843,1849,NA,NA
CAVENDER'S CREEK,GA,1845,1851,34.5606494,-83.9443536
CEDAR  BRIDGE,MO,1856,1857,38.9769854,-92.149904
CEDAR GROVE,TN,1875,NA,35.8161883,-88.5957748
CEDAR GROVE,TN,1823,1853,36.2517196,-86.5277724
CEDAR LANE,PA,1878,1909,40.0978762,-76.0210581
CEDAR TREE,MS,1876,1878,NA,NA
CEDARCREEK,MO,1871,NA,36.5804644,-92.997178
CEDARTOWN,GA,1833,NA,34.0110065,-85.2563585
CEDRUS,SC,1898,1903,NA,NA
CELIA,PA,1892,1917,40.8150648,-80.2286725
CELINA,MO,1871,1894,NA,NA
CELINA,TN,1828,NA,36.5493705,-85.5051196
CEMENT,GA,1880,1910,34.2612051,-84.9549434
CEMENTON,PA,1891,1968,40.689263,-75.5076838
CENTER,MO,1844,NA,39.5101538,-91.5293874
CENTER HILL,CT,1867,1935,NA,NA
CENTERVILLE,FL,1848,1907,30.4763283,-84.238729
CENTRAL,MO,1851,1908,38.6669962,-90.3662274
CENTRAL CANAJOHARIE,NY,1830,1840,NA,NA
CENTRE,MS,1858,1955,32.945409,-89.4309046
CENTRE BRUNSWICK,NY,1857,1893,42.7570224,-73.6162279
CENTRE LINE,AL,1876,1878,NA,NA
CEOLA,PA,1903,1904,NA,NA
CERRO GORDO,TN,1860,1972,35.3036898,-88.1805902
CHALYBEATE SPRINGS,GA,1860,1895,32.8567986,-84.5802018
CHALYSEATE SPRINGS,MO,1872,1874,NA,NA
CHAMBERS,MO,1895,1896,NA,NA
CHAMPION CITY,MO,1877,1911,38.3194936,-91.2704268
CHAMPLAINTOWN,NY,1797,1810,NA,NA
CHANTILLY,LA,1900,1915,31.6654459,-91.7134585
CHAPEL,MO,1860,1883,36.935611,-91.6754212
CHAPIN,AL,1896,1906,NA,NA
CHAPPIQUIDDIC,MA,1887,1891,41.3873387,-70.5044708
CHARLESTON,TN,1840,NA,35.285245,-84.7593469
CHARM,MS,1904,1908,NA,NA
CHASE,AR,1907,1919,NA,NA
CHASON,FL,1905,1915,30.5351941,-85.1918669
CHATATY,TN,1849,1858,35.2117402,-84.804109
CHATTERTON,GA,1900,1916,31.5115859,-82.736251
CHAUMONT,NY,1806,NA,44.0671642,-76.1298046
CHEAT HAVEN,PA,1890,1927,NA,NA
CHENANGO POINT,NY,1803,1830,42.0986867,-75.9179738
CHEROKEE,MS,1889,1903,33.6028943,-88.3939282
CHERRY,MS,1890,1901,32.094041,-90.0461945
CHESTER,MA,1811,1861,42.2758856,-72.9742648
CHESTERFIELD,LA,1844,1852,NA,NA
CHESTERFIELD,TN,1856,1858,36.0731394,-83.7912928
CHESTNUT CREEK,AL,1833,1879,32.7751276,-86.5455347
CHESTNUT MOUNTAIN,GA,1890,1905,34.1937575,-83.8577539
CHICHESTER,NH,1818,1935,43.2492477,-71.399791
CHICKALAH,AR,1838,1953,35.164254,-93.2785128
CHICKASAW MILLS,MS,1860,1867,NA,NA
CHILDS,PA,1898,1957,41.5559153,-75.5201848
CHILES,MS,1896,1898,NA,NA
CHINA,ME,1818,NA,44.4786791,-69.5172641
CHINA,MS,1895,1896,NA,NA
CHINA GROVE,TN,1836,1846,36.1389553,-88.9139526
CHINCHUBA,LA,1891,1936,30.3871388,-90.0797984
CHIPLEY,FL,1883,NA,30.7819862,-85.5389666
CHIPLEY,MS,1901,1906,NA,NA
CHIPMAN,NY,1897,1903,44.7811702,-75.196041
CHIPPENHOOK,VT,1889,1903,43.5184028,-73.0139947
CHISENHALL'S MILLS,AL,1874,1878,NA,NA
CHOCOVILLE,AR,1852,1887,NA,NA
CHRISTIE,NJ,1902,1902,NA,NA
CHRISTMANSVILLE,PA,1892,1894,40.9764763,-75.6749125
CHROME,PA,1870,1909,39.7334429,-75.9824454
CHULAFINNEE,AL,1842,1904,33.545386,-85.6488479
CHULAHOMA,MS,1838,1911,34.6537116,-89.6303614
CHUNN'S STORE,TN,1820,1834,NA,NA
CHURCH'S,FL,1839,1840,NA,NA
CICERO,NY,1821,1990,43.1756235,-76.1193678
CINDA,AR,1888,1901,35.8800733,-90.1670393
CISCO,MO,1888,1901,39.9469584,-93.6313277
CITY POINT,ME,1887,1940,44.4511863,-69.0350356
CLAFLIN'S,PA,1833,1835,NA,NA
CLANTON,AL,1871,NA,32.8319335,-86.6269636
CLARENCE,AL,1890,1907,34.0837078,-86.4283186
CLARK,AL,1883,1890,33.9145508,-87.5766817
CLARK,FL,1894,1911,29.7732956,-82.6259497
CLARK'S FACTORY,NY,1849,1890,42.1342545,-74.6971009
CLARKS MILL,MS,1891,1907,NA,NA
CLARKSON,FL,1892,1905,30.6371303,-85.8110395
CLARKSTOWN,TN,1857,1894,35.9331213,-85.3099701
CLARKSVILLE,PA,1824,1825,NA,NA
CLAUDE,MS,1905,1915,31.3123978,-89.9159153
CLAY CENTER,FL,1912,1922,NA,NA
CLAYSVILLE,MS,1853,1875,NA,NA
CLEAR SPRINGS,MO,1880,1953,37.1083852,-91.8504271
CLEAR SPRINGS,AL,1879,1906,33.9987084,-86.245256
CLEARMONT,MO,1881,NA,40.5095296,-95.0323638
CLEARWATER,AL,1874,1881,NA,NA
CLEVER,MO,1892,NA,37.0284923,-93.4708761
CLIFTON,AL,1900,1904,34.9903614,-87.1027894
CLIFTY DALE,MO,1855,1887,38.0600412,-91.8926633
CLIMAX,AR,1907,1916,NA,NA
CLINCH,GA,1887,1918,NA,NA
CLIPPER,GA,1899,1923,34.5425882,-84.5829863
CLOVERDALE,MO,1896,1911,37.6347628,-93.0265738
COAL CITY,PA,1868,1905,41.3108925,-79.8131087
COAL FIRE,AL,1871,1927,33.4040067,-88.0847485
COALMONT,AL,1903,1914,33.2548366,-86.8830455
COBB,AL,1878,1898,NA,NA
COBBS,MS,1893,1907,31.5598928,-90.5745423
COCHRANVILLE,PA,1802,NA,39.8941418,-75.9218959
COFFEE CREEK,TN,1834,1835,NA,NA
COHAY,MS,1915,1937,31.9282136,-89.5970149
COKESBURY,SC,1835,1943,34.2892865,-82.2078987
COLBY,MS,1909,1917,32.8784632,-90.6859296
COLDEN CENTRE,NY,1862,1865,42.9111705,-78.523357
COLEBROOK MEETINGHOUSE,CT,1820,1827,41.9897185,-73.0957398
COLFAX,MO,1868,1887,40.3225138,-93.3093809
COLLATE,AR,1883,1884,NA,NA
COLLEGE GROVE,TN,1860,NA,35.783504,-86.6777516
COLLEGE HEIGHTS,AR,1894,1895,NA,NA
COLLIERS,TN,1901,1903,36.3014467,-88.918668
COLLIERSVILLE,MO,1854,1860,NA,NA
COLON,GA,1905,1932,30.7560482,-82.6220777
COLQUITT,LA,1906,1928,32.9498643,-92.9737718
COLUMBIA,AL,1828,NA,31.2935243,-85.1112138
COLUMBIA COLLEGE,SC,1906,1912,34.0465427,-81.030647
COLUMBUS,MO,1837,1920,38.8586209,-93.8907752
COMBAHEE,SC,1884,1885,NA,NA
COMFORT,FL,1889,1892,NA,NA
COMMERCE,MS,1839,1922,34.817876,-90.3709324
COMMONS,RI,1830,1847,41.5087653,-71.1699518
CONCHARDEE,AL,1849,1866,33.5601047,-86.1199726
CONCORD,TN,1839,1842,35.2860745,-86.5394947
CONNELLY,NY,1889,NA,41.9095485,-73.9904545
CONNOR,AR,1904,1967,36.2411826,-93.4449081
CONSTABLE HOOK,NJ,1887,1889,40.657881,-74.0990309
CONTINENTAL,PA,1867,1867,NA,NA
CONWAY,NH,1804,NA,43.977688,-71.1252723
COOKS CORNER,NY,1855,1904,44.8861584,-74.4562943
COOK'S BRIDGE,TN,1856,1858,NA,NA
COOLBAUGH'S,PA,1814,1906,41.0625951,-75.0687871
COOLSPRING,PA,1838,1966,41.0431202,-79.0836472
COON CORNERS,PA,1868,1909,41.7161665,-80.209504
COOPER,LA,1898,1915,31.0390731,-93.2993248
COOPER'S LANDING.,AR,1872,1879,NA,NA
COOPERSVILLE,AL,1848,1849,NA,NA
COOPWOOD,MS,1856,1907,32.9779062,-88.9833927
COPE,MO,1898,1900,NA,NA
COPE,SC,1894,NA,33.3783047,-81.0073668
COPELLA,PA,1889,1905,40.8000956,-75.3685147
COPLAY,PA,1870,NA,40.669269,-75.5008373
CORA,LA,1887,1957,31.1090746,-92.8684852
CORA,MS,1882,1883,NA,NA
CORGANDALE,TN,1866,1928,36.4486621,-87.513068
CORINTH,GA,1833,1914,33.2301198,-84.9454929
CORNELIA,NY,1825,1834,44.239491,-76.0857759
CORNELL,GA,1888,1892,33.6884413,-84.3640922
CORNISHVILLE,ME,1829,1847,43.802397,-70.8226774
CORNWALL,AR,1838,1839,NA,NA
CORUMS,TN,1890,1903,36.2847736,-86.4063817
CORVOLI,MO,1900,1906,38.9041873,-92.9890843
COSPER,PA,1884,1885,NA,NA
COTTAGE,PA,1844,1917,40.6209007,-77.9844478
COTTON HILL,MO,1871,1875,36.5629981,-89.9944417
COUCHVILLE,TN,1860,1910,36.0975591,-86.5538835
COUGH MILLS,SC,1809,1830,NA,NA
COUNTY LINE,AL,1856,1870,33.3106696,-85.7544051
COUNTY LINE,AR,1852,1859,NA,NA
COVENTRYVILLE,PA,1888,1901,40.1734319,-75.6893635
COVEVILLE,NY,1838,1912,43.0603537,-73.595394
COVINGTON,LA,1829,NA,30.4774146,-90.0931329
COVINGTON,SC,1886,1902,NA,NA
COW CREEK,FL,1909,1913,28.8374908,-81.0275582
COWARDS,TN,1890,1903,NA,NA
COWESETT,RI,1880,1938,41.6812119,-71.4611693
COY,GA,1894,1903,NA,NA
COZBY,TN,1850,1857,NA,NA
CRABAPPLE,GA,1894,1905,34.0900982,-84.3385359
CRACKERS NECK,AR,1868,1868,NA,NA
CRAWFORD,MS,1870,NA,33.3019353,-88.6199793
CRAWFORDTON,TN,1883,1904,NA,NA
CREAM RIDGE,MO,1868,1893,39.784741,-93.4627122
CRESCENT CITY,FL,1876,NA,29.4353814,-81.5109008
CRIPPLE CREEK,TN,1842,1853,35.7783948,-86.2133208
CRISES,TN,1854,1857,NA,NA
CRISP PRAIRIE,MO,1843,1853,NA,NA
CRITTENDEN,AR,1909,1927,35.2442546,-90.4556579
CROCKETT,LA,1898,1907,32.0662707,-92.8415442
CROSBY,MS,1899,1907,31.5498831,-89.3206118
CROSS ROADS,TN,1879,1904,35.7889571,-85.7155371
CROSS ROADS,SC,1826,1828,34.2423459,-81.9037222
CROSSROADS,GA,1900,1905,34.4489867,-83.8079593
CROSSVILLE,AL,1869,NA,34.2874341,-85.9810913
CROTON LANDING,NY,1848,1891,41.2084279,-73.8912481
CROWS MILLS,PA,1858,1913,39.927855,-80.5056273
CROWN,MO,1892,1906,37.2644924,-92.9512876
CROW'S BLUFF,FL,1888,1913,29.0077627,-81.389232
CRUMBIE,AL,1892,1903,34.0889879,-86.7966657
CRUSOE,GA,1899,1900,NA,NA
CULBERSON,TN,1882,1882,NA,NA
CULVERS EAKE,NJ,1914,1915,NA,NA
CUMBERLAND FURNACE,TN,1867,NA,36.2666774,-87.3629444
CUMBY,AL,1900,1901,NA,NA
CUPID,GA,1893,1902,NA,NA
CUPOLA,PA,1869,1930,40.0992669,-75.8452155
CUPP,TN,1901,1924,NA,NA
CURETON'S STORE,SC,1832,1902,NA,NA
CURL'SA STATION,AL,1878,1913,32.4898599,-88.2194708
CURRY,NY,1890,1963,41.858425,-74.5812687
CURRYTON,FL,1888,1888,NA,NA
CUSHING,ME,1973,NA,43.999539,-69.2679859
CUTRERSVILLE,LA,1833,1834,NA,NA
CYCLONE,MO,1883,1955,36.6184061,-94.2563219
CYNTHIA,MS,1887,1935,32.4029214,-90.2489784
CYPRESS,MO,1892,1903,40.2211141,-93.9735624
CYPRESS FORK,AR,1878,1905,NA,NA
DADDY'S CREEK,TN,1876,1934,35.9264581,-84.9282852
DAGWOOD SPRING,SC,1848,1850,NA,NA
DALE,MO,1892,1903,36.741175,-93.7843641
DALE'S MILL,GA,1881,1899,NA,NA
DALLAS,SC,1888,1894,NA,NA
DALMATIA,PA,1818,NA,40.6518369,-76.9013916
DALTONVILLE,MS,1893,1903,NA,NA
DAMPHOOL,TN,1883,1884,NA,NA
DANZLER,AL,1902,1906,33.8767686,-86.8819424
DARBUN,MS,1896,1924,31.2762874,-90.0470306
DARDENNE BRIDGE,MO,1827,1833,NA,NA
DARGAN,SC,1887,1890,34.6646019,-79.7164498
DARIEN,CT,1849,1882,41.0743207,-73.4712817
DARLING,PA,1879,1964,39.9034443,-75.4696432
DARLOT,GA,1881,1888,31.9346511,-81.6306684
DARTWELL,MO,1922,1922,36.1751066,-89.8118082
DATTON,TN,1901,1903,NA,NA
DAUPHINE,MO,1869,1892,38.5780959,-91.9657348
DAVIDGE,PA,1889,1892,NA,NA
DAVIS,AR,1890,1907,NA,NA
DAVIS,MA,1885,1918,42.6861946,-72.8653743
DAVIS,PA,1857,1861,NA,NA
DAWSON,MO,1880,1904,40.4644372,-95.0994204
DAWSON,MO,1910,1956,37.2569946,-92.3079405
DAWT,MO,1907,1934,36.6100624,-92.2768254
DAY,MO,1889,1957,36.813114,-93.2437937
DAYSVILLE,TN,1901,1936,35.8947939,-84.7699437
DAYTON'S BRIDGE,NJ,1833,1836,NA,NA
DE BASTROP,AR,1842,1851,33.1134999,-91.5294572
DE FUNIAK SPRINGS,FL,1885,NA,30.7210227,-86.1152184
DE LUCE,AR,1887,1892,34.2087122,-91.2467849
DE TURKSVILLE,PA,1876,1905,40.576757,-76.3302305
DEAD FALL,AL,1853,1867,NA,NA
DEADWATER,ME,1906,1931,45.1372769,-69.8014457
DEANS ISLAND,AR,1906,1938,35.4284172,-90.041201
DEASLEE,AR,1890,1893,NA,NA
DEBORAH,MS,1901,1905,NA,NA
DECATUR,LA,1904,1908,NA,NA
DECHARD,TN,1852,NA,35.2098048,-86.0794285
DEE,PA,1889,1901,40.9350644,-79.4433765
DEENVILLE,TN,1887,1887,NA,NA
DEEP WATER,MS,1849,1856,NA,NA
DEER LAND,GA,1856,1876,NA,NA
DEERFIELD STATION,NH,1907,1907,43.1283317,-71.2376227
DEERFIELD STREET,NJ,1802,NA,39.5234257,-75.236128
DEERTOWN,PA,1826,1827,NA,NA
DEFRANCEVILLE,PA,1852,1866,NA,NA
DEINOSS,TN,1837,1840,NA,NA
DELANO,PA,1867,NA,40.8379475,-76.0743871
DELBRIDGE,MO,1928,1934,37.7947684,-90.9867994
DELEGAL,FL,1900,1904,NA,NA
DELIGHT,PA,1868,1891,NA,NA
DELK,PA,1902,1905,NA,NA
DELL,MA,1889,1914,42.670917,-72.8481514
DELMAR,SC,1894,1909,34.0201406,-81.5223261
DELMONELL,TN,1884,1896,NA,NA
DEMORY HILL,FL,1930,1948,29.3288499,-83.1442944
DENNING,AR,1894,1965,35.4292524,-93.7568617
DENNIS,FL,1899,1900,NA,NA
DENTS RUN,PA,1866,1927,41.3581172,-78.2672332
DENUMBRIE'S LANDING,MS,1866,1868,NA,NA
DESARC,LA,1897,1908,NA,NA
DEVEREAUX STATION,GA,1870,1896,33.2220891,-83.0734841
DEVERO,AR,1902,1906,36.2095132,-92.284323
DEVON,PA,1883,NA,40.0463367,-75.4233456
DEWART,PA,1858,NA,41.1084108,-76.8794146
DEXTER,NH,1882,1908,NA,NA
DIAMOND,AL,1891,1907,34.3023159,-86.3963738
DIANA STATION,NY,1890,1894,44.1074734,-75.3678262
DIBRELL,TN,1878,1914,35.8120122,-85.791928
DICEY,FL,1884,1887,NA,NA
DICKEY,ME,1905,1921,47.1094794,-69.0864288
DICKSONBURG,PA,1867,1917,41.7053327,-80.3520088
DINGLEY,MO,1907,1909,38.3011567,-91.6807193
DISCO,GA,1895,1903,NA,NA
DISSTON,PA,1891,1902,NA,NA
DIVIDING CREEK,NJ,1809,NA,39.2713141,-75.1010085
DIX,NY,1840,1845,NA,NA
DODDSVILLE,MS,1894,NA,33.6573665,-90.5250204
DOEIA,MS,1900,1907,NA,NA
DONNER,LA,1901,NA,29.6957647,-90.9442629
DONT,MS,1894,1907,NA,NA
DORA,MO,1879,NA,36.7770036,-92.2173801
DORCYVILLE,LA,1881,1918,30.1793637,-91.1595491
DORSEYVILLE,PA,1854,1904,40.5770119,-79.8886634
DOSKIE,MS,1902,1904,34.9059216,-88.2950431
DOT,GA,1880,1880,NA,NA
DOTHAN,AL,1858,NA,31.2276457,-85.3943743
DOUBLE SALE,PA,1858,1868,NA,NA
DOUBLE SPRINGS,MS,1837,1904,33.4034566,-89.0756183
DOUGLASS,NY,1890,1914,44.4858816,-73.4179105
DOWELL,MS,1904,1907,32.9012433,-89.5634076
DOWNING,GA,1894,1903,NA,NA
DOWNING'S MILLS,NH,1851,1873,NA,NA
DOYLINE,LA,1884,NA,32.5303232,-93.4086174
DRESDEN,GA,1898,1901,33.3515055,-84.918549
DREW,SC,1885,1890,NA,NA
DREW'S STATION,LA,1871,1875,NA,NA
DREXEL,GA,1898,1908,NA,NA
DRIBURG,PA,1881,1887,NA,NA
DRIFTWOOD,PA,1828,1829,NA,NA
DRINKWATER,PA,1892,1894,NA,NA
DRY RIDGE,PA,1848,1874,NA,NA
DUCK,GA,1884,1892,NA,NA
DUDLEY,MA,1811,1963,42.0437794,-71.9032222
DUDLEY,PA,1862,NA,40.2055584,-78.1765567
DUENWEG,MO,1895,NA,37.0820954,-94.4091028
DUKE,MO,1906,NA,37.6603199,-92.010715
DUKE,MO,1897,1906,NA,NA
DUMAS' STORE,AL,1879,1887,32.0568529,-87.5868786
DUMP,AR,1885,1896,35.7845247,-93.9876987
DUNBAR HEIGHTS,FL,1954,1956,NA,NA
DUNBARTON,MS,1858,1866,NA,NA
DUNKIRK,NY,1818,NA,42.4825672,-79.3339704
DUO,SC,1891,1901,NA,NA
DUPLER,SC,1891,1907,NA,NA
DUPLESSIS,LA,1906,NA,30.2690841,-90.9412106
DURHAM,ME,1849,1911,43.6019136,-70.4495064
DURLANDVILLE,NY,1915,1926,41.3506496,-74.3882102
DUTCH MILLS,AR,1871,1965,35.875638,-94.4916065
DUTCHKILLS,NY,1886,1889,40.7448241,-73.9487491
DUTTON,FL,1875,1895,NA,NA
DUXBURY,MA,1800,NA,42.0254124,-70.6849436
DWYER,MO,1884,1904,NA,NA
DYER,AR,1885,NA,35.490083,-94.1388632
EAGAN,TN,1908,1989,36.555043,-83.9749558
EAGLE,ME,1901,1943,44.5189661,-68.30585
EAGLE BAY,NY,1900,NA,NA,NA
EAGLE FORK,MO,1866,1883,NA,NA
EAGLEVILLE,MO,1881,NA,40.4679117,-93.9852402
EAKIN,PA,1854,1880,NA,NA
EARLSTON,PA,1901,1904,40.0061935,-78.370015
EARLVILLE,PA,1838,NA,40.317451,-75.7293987
EARLY BRANCH,SC,1872,NA,32.7461713,-80.9298675
EAST  BERLIN,CT,1852,NA,41.6149775,-72.7174439
EAST ALNA,ME,1828,1829,NA,NA
EAST AUBURN,ME,1844,1901,NA,NA
EAST BERKLEY,PA,1875,1908,NA,NA
EAST BLOOMFIELD,NY,1813,NA,42.8950641,-77.4347128
EAST CANEADEA,NY,1851,1854,42.4030029,-78.090085
EAST CHARLESTON,PA,1854,1907,41.7731289,-77.2005276
EAST DOVER,VT,1861,NA,42.951003300000004,-72.7686988
EAST ENOSBURG,VT,1887,1913,44.8631029,-72.7362422
EAST FINLEY,PA,1852,1901,40.0236848,-80.3875661
EAST FLORENCE,NY,1838,1913,NA,NA
EAST FRANKLIN,VT,1850,1957,44.9961556,-72.8320797
EAST GRANGER,NY,1859,1902,NA,NA
EAST HAMPDEN,ME,1850,1917,44.770627,-68.7950366
EAST HAMPTON,CT,1822,NA,41.5769075,-72.503257
EAST HARDWICK,VT,1849,NA,44.5208268,-72.3074024
EAST JACKSON,ME,1873,1903,NA,NA
EAST JAMAICA,VT,1881,1960,43.0739673,-72.7348171
EAST LYMAN,NH,1831,1855,NA,NA
EAST MANSFIELD,MA,1886,NA,42.0231552,-71.1772722
EAST MAUCH CHUNK,PA,1870,1913,40.8759235,-75.7324127
EAST NEWPORT,ME,1839,NA,44.8198402,-69.2205458
EAST NORTH YARMOUTH,ME,1851,1909,43.8561894,-70.214773
EAST RIVER,CT,1867,1959,41.2853759,-72.638427
EAST RODMAN,NY,1840,1929,43.8700659,-75.8532527
EAST SAINT ALBANS,ME,1831,1847,NA,NA
EAST SALEM,NY,1831,1903,43.0845213,-73.312888
EAST SANDY,PA,1837,1911,41.3311706,-79.7686634
EAST SCHUYLER,NY,1825,1901,43.0536811,-75.0743252
EAST SCIPIO,NY,1818,1823,NA,NA
EAST SMETHPORT,PA,1882,NA,41.8100557,-78.4271791
EAST SPRINGFIELD,PA,1866,NA,41.9656175,-80.4059107
EAST STEUBEN,NY,1871,1915,43.376458,-75.2293337
EAST STRONG,ME,1849,1866,NA,NA
EAST TITUSVILLE,PA,1879,1904,41.6220039,-79.6422736
EAST UNADILLA,NY,1866,1870,NA,NA
EAST WALES,ME,1856,1901,44.1575733,-70.0406075
EAST WALLINGFORD,CT,1872,1900,41.4437085,-72.7889873
EAST WALLINGFORD,VT,1851,NA,43.4502062,-72.8752837
EAST WALPOLE,MA,1854,NA,42.1611314,-71.2146554
EAST WILTON,ME,1828,NA,NA,NA
EAST WINDSOR,CT,1842,1846,41.9300525,-72.6176139
EASTANOLLEE,GA,1875,NA,34.5260634,-83.2506671
EASTON FOUR CORNERS,MA,1829,1841,NA,NA
EATON,MO,1847,1863,NA,NA
EBENEZER,LA,1855,1858,32.4453682,-92.5637242
ECHO,LA,1890,1892,30.3190916,-92.4137438
ECHO,MS,1890,1907,31.0412888,-90.7639897
ED,LA,1898,1899,NA,NA
EDDY,NY,1900,1911,44.5400608,-75.2365975
EDDY,SC,1895,1912,NA,NA
EDDY LAKE,SC,1906,1914,33.6501693,-79.1205967
EDEN,PA,1837,1844,NA,NA
EDENBORN,PA,1901,1919,39.8842428,-79.8817177
EDENFIELD,GA,1899,1904,NA,NA
EDENFIELD,GA,1848,1866,NA,NA
EDGAR,MS,1896,1907,NA,NA
EDGE HILL,PA,1851,1853,40.1034436,-75.163231
EDGEFIELD,AL,1849,1855,NA,NA
EDGERTON,MO,1871,NA,39.5060431,-94.6314699
EDINBURG,PA,1840,NA,41.0142971,-80.4365505
EDISTO MILLS,SC,1851,1866,NA,NA
EDITH,MO,1894,1918,37.949757,-92.8746312
EDITH,AL,1890,1907,NA,NA
EDSON,AR,1895,1899,NA,NA
EDWARDS,MS,1883,NA,32.3293421,-90.6035958
EDWARDS,NY,1827,NA,44.3264871,-75.2491819
EDWARDS MILLS,MO,1888,1889,NA,NA
EDWARDSVILLE,MO,1833,1840,NA,NA
EGYPT,ME,1884,1919,44.5589655,-68.2808499
EGYPT,MS,1859,1965,33.8984469,-88.7297726
EHRENFELD,PA,1892,1972,40.3714629,-78.7775214
ELDRIDGE,MO,1877,NA,37.3856044,-93.9532705
ELERY,GA,1898,1904,33.3553938,-85.1338324
ELK,AR,1912,1912,NA,NA
ELK FORK,MO,1852,1864,NA,NA
ELKANAH,TN,1897,1902,36.4198273,-82.2490234
ELKHART,MO,1873,1875,38.3531588,-94.4566643
ELLEN,AR,1895,1911,35.1434206,-91.5918001
ELLENBURG CENTRE,NY,1856,NA,44.864764,-73.8970926
ELLIOTT KEY,FL,1891,1891,NA,NA
ELLISVILLE DEPOT,MS,1883,1895,31.6040538,-89.1956142
ELMA,NY,1853,NA,42.8347615,-78.6375779
ELMER,MO,1889,NA,39.9576025,-92.6505949
ELMWOOD,TN,1882,NA,36.2247301,-85.8844809
ELMWOOD,GA,1879,1891,32.7487518,-83.4373972
ELMWOOD,ME,1886,1904,NA,NA
ELMWOOD PARK,NY,1891,1899,NA,NA
ELPARDO,TN,1901,1905,36.3867269,-85.5419178
EMAUS,PA,1806,NA,40.5358843,-75.4942303
EMMA,AR,1901,1901,NA,NA
EMMAVILLE,MS,1879,1882,33.6965056,-90.2950864
EMMET,TN,1881,1883,NA,NA
ENERGY,GA,1907,1916,NA,NA
ENFIELD,ME,1844,NA,45.2489449,-68.5683578
ENFIELD CENTRE,NY,1846,1918,42.435906,-76.6313356
ENGELBERT,MO,1886,1888,38.3150421,-91.9226705
ENGLISH EDDY,GA,1890,1907,31.9693603,-82.3565154
ENLOE,TN,1888,1903,NA,NA
ENOLA,AR,1879,NA,35.1957542,-92.2030715
ENON,SC,1897,1905,34.0662573,-80.8786962
ENSLEY,TN,1884,1895,35.068981,-90.1209264
EPWORTH,MO,1891,1935,39.894206,-92.0943433
EQUALITY,SC,1836,1907,34.7128913,-82.6104115
ERIN,TN,1868,NA,36.3155854,-87.7132068
ERLY,PA,1903,1907,40.4089715,-77.3388751
ERNEST,MO,1889,1904,37.484669,-93.9414132
ERNST,PA,1880,1882,NA,NA
ERWIN,NY,1826,1911,42.137932,-77.1414837
ESPERENZE,LA,1897,1908,NA,NA
ESSIE,SC,1892,1901,NA,NA
ESTES,MS,1909,1945,33.0612384,-89.0492288
ESTOPATCHY RIVER,AL,1811,1819,NA,NA
ETLAH,MO,1864,1935,38.6392145,-91.2765443
ETTER,MO,1903,1904,38.3675315,-92.4701849
EUDORA,MO,1870,1881,40.4127713,-95.147754
EUKABA,MS,1903,1904,NA,NA
EULA,AR,1893,1899,NA,NA
EUREKA,GA,1874,1901,NA,NA
EUREKA,PA,1871,1955,40.2445516,-75.1921176
EVA,GA,1888,1901,NA,NA
EVANS,AL,1882,1918,32.8381842,-87.7525108
EVANS CITY,PA,1882,NA,40.768684,-80.0615201
EVANSVILLE,AR,1838,NA,35.7957583,-94.4959653
EVENS,MO,1892,1901,NA,NA
EVONA,MO,1880,1935,40.1977743,-94.3291229
EXCELTON,SC,1916,1920,NA,NA
EXETER,FL,1883,1890,NA,NA
EXIST,MO,1894,1896,NA,NA
EXPEDIT,PA,1896,1929,40.498859,-78.8658875
EYNON,PA,1899,1966,41.4956364,-75.5743534
FACILITY,TN,1831,1856,NA,NA
FAGUS,MO,1913,1973,36.5114476,-90.2670466
FAIR,TN,1902,1905,NA,NA
FAIR,MS,1904,1905,NA,NA
FAIRFIELD,TN,1842,1905,35.5667396,-86.2852708
FAIRHAVEN,MA,1820,NA,41.635311,-70.9036262
FAIRMONT,MO,1923,1928,39.110689,-94.45813
FAIRMONT,TN,1872,1915,35.18146,-85.3235713
FAIRVIEW,TN,1869,1898,36.0689674,-84.2749245
FAIRVIEW,AL,1874,1905,33.7425999,-86.2074761
FALCON,MO,1907,NA,37.6039935,-92.3780344
FALLOW,SC,1903,1904,NA,NA
FALLSINGTON,PA,1849,1958,40.1856649,-74.8171075
FALMOUTH FORESIDE,ME,1888,1901,43.7348031,-70.2078262
FANCY,TN,1902,1907,36.3664497,-88.6544982
FANCY BLUFF,GA,1828,1895,31.1399523,-81.5581581
FANCY HILL,AR,1878,1921,34.3664928,-93.7640801
FARLAND,AL,1860,1866,NA,NA
FARMDALE,FL,1889,1941,30.0179816,-85.4696446
FARMER'S GROVE,PA,1874,1881,40.4295242,-77.5211007
FARMINGTON,AR,1851,1860,NA,NA
FAYETTE CORNER,ME,1875,1903,44.4206221,-70.0719997
FEBRUARY,TN,1884,1899,36.333438,-82.4995913
FEDERAL,PA,1885,1963,40.3786803,-80.1478346
FELTON,GA,1880,NA,33.8951446,-85.2268735
FENDER,GA,1884,1895,NA,NA
FENNER,NY,1824,1903,42.9695113,-75.7868544
FENRIS,LA,1924,1927,30.5607548,-92.4298551
FERN,FL,1904,1905,NA,NA
FERNDALE,PA,1873,1894,40.6317638,-75.4732384
FERRO,TN,1904,1912,NA,NA
FERRO,AL,1903,1903,NA,NA
FERRONA,NY,1870,1898,NA,NA
FESTUS,MO,1883,NA,38.2202688,-90.3964019
FESTUS,AL,1904,1906,33.4987254,-87.8347386
FEURA BUSH,NY,1851,NA,42.5790354,-73.8767995
FINCHBURG,AL,1886,1972,31.6426574,-87.5108251
FINK,PA,1898,1900,NA,NA
FINLEY,MO,1858,1863,37.1092182,-92.7690595
FINNEYDALE,PA,1886,1888,NA,NA
FISHBONE,FL,1906,1908,NA,NA
FISHER,PA,1860,NA,41.2665171,-79.2405593
FITCHBURG,MA,1811,NA,42.5862187,-71.8042747
FLAG,MO,1900,1927,36.6238287,-93.2999325
FLATWOOD,AL,1901,1954,32.1493111,-87.5230557
FLATWOODS,SC,1901,1902,34.8962293,-82.1976118
FLEMING,ME,1894,1904,NA,NA
FLINCH,TN,1903,1907,NA,NA
FLINT HILL,MO,1836,NA,38.8550506,-90.8612442
FLINTSTONE,GA,1891,NA,34.9419914,-85.3418875
FLINTVILLE,TN,1861,NA,35.0621363,-86.420897
FLORAL,AR,1879,NA,35.5868572,-91.75768
FLY SUMMIT,NY,1870,1935,43.0125773,-73.4842808
FOGLE,SC,1890,1895,NA,NA
FOLK,MO,1905,1964,38.4214262,-92.0979558
FOLTZ,PA,1889,1923,39.8659242,-77.9424995
FONDALE,LA,1921,1930,32.3545932,-92.1079129
FOREST CITY,AR,1869,NA,35.0101765,-90.7836965
FORBING,LA,1907,1981,32.3926552,-93.727401
FOREST,LA,1888,NA,32.7917828,-91.4131237
FOREST,AL,1888,1899,31.7579325,-86.6655299
FOREST GREEN,MO,1873,1979,39.315029,-92.8376875
FORGET,TN,1882,1882,NA,NA
FORK,AL,1883,1911,NA,NA
FORLORN HOPE,LA,1879,1886,30.2785281,-91.1289937
FORSMAN,PA,1829,1830,NA,NA
FORT BENNING,GA,1922,1930,32.3658699,-84.9648827
FORT DOUGLAS,AR,1876,1880,NA,NA
FORT FAIRFIELD,ME,1843,NA,46.7708954,-67.8294752
FORT GEORGE,SC,1876,1882,34.8634289,-82.965703
FORT GREEN,FL,1880,1978,27.5947576,-81.9442515
FORT HENRY,MO,1857,1875,39.4636429,-92.607685
FORT HILL,PA,1885,NA,39.8320611,-79.2743559
FORT LORING,MS,1900,1916,33.506787,-90.2514726
FORT MITCHELL,AL,1833,NA,32.3121679,-85.0133107
FORT PERRY,GA,1828,1828,32.4758333,-84.5366667
FORT TICONDEROGA,NY,1902,1954,43.8533931,-73.3898413
FORT TOTTEN,NY,1902,1918,NA,NA
FORTNER,TN,1896,1903,NA,NA
FORTNEY,PA,1882,1913,40.0989825,-76.9069182
FOUNTAIN HILL,TN,1823,1866,NA,NA
FOUNTIAN CREEK,TN,1826,1931,35.4467416,-86.9888939
FOUR MILE,MO,1855,1882,36.5080448,-90.0948306
FOURCHE,AR,1856,1859,34.7145367,-92.2351486
FOWLER,AL,1898,1900,34.0487159,-87.329179
FOX,PA,1826,1844,NA,NA
FOX BRANCH,TN,1897,1904,36.5870343,-83.1087821
FOX CHASE TAVERN,PA,1812,1812,NA,NA
FOX RIDGE,NY,1886,1901,43.0553432,-76.6907828
FOXBURGH,PA,1827,1840,NA,NA
FOX'S CREEK,AL,1831,1835,NA,NA
FRANKLIN,NJ,1913,NA,41.1183694,-74.5791457
FRANKLIN,MA,1818,1834,42.0840139,-71.3978341
FRANKLIN COURT HOUSE,AL,1815,1818,34.4416706,-87.843812
FRANKLIN IRON WORKS,NY,1867,1898,43.0367363,-75.392115
FRANKLIN SQUARE,NY,1923,NA,40.7067807,-73.6718817
FRAZIERS POINT,AR,1860,1861,NA,NA
FRECK,AR,1906,1953,36.1072948,-92.7001653
FRED,AR,1900,1907,NA,NA
FREDERICK,MO,1884,1885,NA,NA
FREED,PA,1894,1925,NA,NA
FREEDOM,ME,1816,1832,NA,NA
FREEDOM PLAINS,NY,1826,1901,41.6725937,-73.7995767
FREEHOLD,PA,1847,1903,41.9017241,-79.4256055
FREMONT,MO,1874,1884,NA,NA
FREMONT,MS,1850,1852,NA,NA
FREOIE,MO,1868,1875,NA,NA
FRESCO,AL,1887,1904,31.5954415,-85.8654998
FRIEND,MO,1895,1899,NA,NA
FRIENDSVILLE,TN,1850,NA,35.7609435,-84.1354828
FROST,LA,1919,1954,30.4040814,-90.7392615
FRUITVILLE,PA,1883,1903,40.2564886,-75.5407347
FRYEBURG,ME,1797,NA,44.014975,-70.9836033
FRYEBURG ADDITION,ME,1833,1833,NA,NA
FRYEBURG CENTRE,ME,1857,1911,44.0695135,-70.9447905
FUGA,TN,1891,1905,35.1959156,-86.3699913
FULLER STATION,NY,1872,1897,42.7259104,-73.9604028
FUNCHESS,MS,1831,1833,NA,NA
FUNSTON,TN,1901,1904,NA,NA
FURLONG,PA,1886,NA,40.2967735,-75.0829483
FURMAN,AL,1884,NA,32.0046401,-86.9653117
FUSON,MO,1888,1923,37.3322711,-92.4985005
GABE,TN,1889,1903,36.207024,-83.9276908
GAILEY MILLS,GA,1848,1852,NA,NA
GAINESTOWN,AL,1848,NA,31.4458851,-87.6936975
GAITHER,MO,1901,1907,37.1531106,-93.8849318
GALILEE,MS,1901,1909,32.0501546,-89.7342408
GALLAVON,SC,1889,1905,34.4973845,-79.4519929
GAMMAGE'S,AL,1828,1833,NA,NA
GANADARQUE,AL,1895,1903,NA,NA
GANSEVOORT,NY,1836,NA,43.2022693,-73.6453075
GARDINER,ME,1803,NA,44.2296589,-69.7742837
GARDNERS,GA,1926,1951,32.8534892,-82.9626442
GARGOL,PA,1897,1903,40.0159262,-77.1727593
GARLAND,TN,1942,1948,NA,NA
GARNET LAKE,NY,1940,1953,43.5417328,-74.0120735
GARNSEY,AL,1901,1928,33.1323406,-87.0074926
GARWOOD,PA,1880,1900,40.0859059,-79.97894
GARY,AR,1897,1902,NA,NA
GASSAWAY,TN,1890,1973,35.9397854,-85.9955443
GASTER'S LANDING,AR,1856,1860,NA,NA
GATES,TN,1882,NA,35.8397608,-89.4068393
GATH,MO,1860,1869,NA,NA
GAULT,TN,1892,1902,NA,NA
GED,LA,1911,1943,30.1399309,-93.5923832
GENTSVILLE,SC,1829,1866,NA,NA
GEORGETOWN,FL,1869,NA,29.3898288,-81.6382676
GEORGETOWN,NY,1819,NA,42.7697674,-75.7348549
GERMANIA,PA,1858,1965,41.6461793,-77.6605423
GERTRUDE,FL,1902,1907,NA,NA
GIBBS,MO,1888,NA,40.0978136,-92.4168552
GIBSONVILLE,NH,1830,1831,NA,NA
GILDEHOUSE,MO,1894,1906,38.4847745,-90.9384734
GILFORD VILLAGE,NH,1825,1899,NA,NA
GILMER,MS,1894,1899,NA,NA
GILMORE,AL,1893,1894,NA,NA
GIM WOLF,MS,1846,1850,NA,NA
GIPSON,AR,1887,1902,34.898434,-94.3871623
GIPSY,AL,1888,1915,34.8936969,-87.0825113
GLADE,AR,1903,1945,36.3681285,-93.9140869
GLADE RUN,PA,1828,1855,40.8708985,-79.2344828
GLASGOW,MO,1837,NA,39.2245231,-92.8471713
GLASGOW,AR,1886,1914,NA,NA
GLASSMERE,PA,1907,1956,40.5764559,-79.7803267
GLEN AUBREY,NY,1855,NA,42.2563045,-76.0124418
GLEN CLIFF,TN,1879,1901,36.1225579,-86.7183311
GLEN MOORE,NJ,1891,1926,40.3681619,-74.7840513
GLEN WHITE,PA,1871,1934,NA,NA
GLENCAIRN,NY,1894,1903,42.0789631,-76.4896641
GLENCOE,AL,1915,1962,33.9553284,-85.9329645
GLENDALE,MO,1886,1887,NA,NA
GLENDALE,PA,1869,1890,40.3186863,-78.7252976
GLENLOCH,TN,1873,1903,NA,NA
GLENLYNN,MS,1897,1903,NA,NA
GLENWOOD,AR,1879,1879,NA,NA
GLESA,MO,1899,1908,37.0400525,-92.9698978
GLOBE,MO,1903,1911,36.5628401,-91.7551467
GLOVERTON,VT,1897,1902,NA,NA
GOBBELLS,TN,1901,1902,NA,NA
GODWIN,AL,1881,1883,NA,NA
GOLD,MO,1900,1915,37.4539318,-93.1932431
GOLDEN,MS,1893,NA,34.4871989,-88.1876609
GOLDEN BRIDGE,NY,1833,NA,41.2934277,-73.6767966
GOLDENIA,TN,1898,1901,NA,NA
GOLDSBOROUGH,AR,1852,1861,NA,NA
GOLDTON,GA,1894,1897,NA,NA
GOMEZ,GA,1896,1905,NA,NA
GOOD HOPE,LA,1857,1858,31.9368025,-92.1551594
GOOD INTENT,PA,1837,1901,40.0370184,-80.4453454
GOODROE,GA,1903,1903,NA,NA
GOODSON,MO,1874,1999,37.7019824,-93.2515815
GOODWATER,MS,1879,1915,31.9162653,-88.8600485
GOODWILL,SC,1894,1906,33.9123815,-80.1492424
GORDO,AL,1847,NA,33.3226418,-87.9105748
GORDONS FERRY,TN,1814,1823,NA,NA
GORDONTON,AR,1899,1900,NA,NA
GORE,ME,1897,1903,NA,NA
GOSFORD,PA,1879,1905,40.8497864,-79.5100447
GOSHEN,NJ,1818,NA,39.1415027,-74.8529465
GOUGLERSVILLE,PA,1855,1953,40.2737032,-76.0191053
GRACELAND,MO,1904,1907,37.7558709,-93.7660428
GRAMBLING,LA,1906,NA,32.5264201,-92.7146996
GRAND CENTRE,MO,1891,1902,39.5972526,-92.6596325
GRAND ISLAND,NY,1851,NA,43.0277055,-78.9647118
GRANDEUR,SC,1887,1907,35.1509507,-82.4915102
GRANDVIEW,MO,1889,NA,38.8885772,-94.5283816
GRANITEVILLE,MA,1855,1976,42.5959244,-71.4620087
GRANT CITY,PA,1874,1894,40.9881177,-80.1711713
GRANTS,ME,1914,1954,45.1031085,-70.748957
GRANTS HILL,MO,1873,1875,NA,NA
GRANTSVILLE,GA,1805,1832,33.6354051,-83.0298732
GRAPEVINE,MO,1891,1893,NA,NA
GRATWICK,NY,1890,1893,43.0570011,-78.8836489
GRAVELLA,AL,1870,1908,31.4932194,-86.9316407
GRAYS STATION,AR,1872,1875,36.2326633,-90.7264699
GRAYSON,AL,1895,1904,NA,NA
GRAYWOOD,AR,1901,1903,NA,NA
GREASON,PA,1864,1959,40.1928654,-77.2902615
GREAT FALLS,NY,1887,1891,NA,NA
GREAT NECK,NY,1867,NA,40.7875766,-73.7224872
GREAT VALLEY,NY,1823,NA,42.2164741,-78.6387755
GREAT WORKS,ME,1826,1880,44.9137349,-68.6316455
GREELYVILLE,SC,1879,NA,33.5819544,-79.9889691
GREEN BANK,PA,1863,1902,40.0845432,-76.0346704
GREEN BROOK,NY,1874,1880,42.4642491,-73.5384467
GREEN DALE,MO,1858,1861,NA,NA
GREEN HILL,AL,1850,1906,34.971472,-87.5139128
GREEN HILL,PA,1891,1919,39.9959413,-75.5991
GREEN WOOD,TN,1849,1854,NA,NA
GREENBACK,TN,1883,NA,35.6612947,-84.1713547
GREENBUSH,AR,1858,1866,NA,NA
GREENLAW,LA,1901,1902,30.9843458,-90.4848178
GREENLEAF,MA,1886,1888,NA,NA
GREENOCK,PA,1876,NA,40.3120915,-79.7965208
GREENSBURG,MO,1857,1954,40.2964258,-92.2168508
GREENVILLE,AL,1803,1828,33.5878814,-86.6894327
GREENVILLE,AR,1895,1899,33.4765014,-92.132084
GREENWOOD,MS,1843,NA,33.5198074,-90.1796283
GREENWOOD,RI,1899,1900,41.7084341,-71.444224
GREGORY,AR,1891,NA,35.1558278,-91.3435378
GREIDER,PA,1893,1906,NA,NA
GRENOBLE,PA,1891,1925,40.2395525,-75.0379471
GRESHAM,PA,1884,1904,41.6236699,-79.7197751
GRIGGS,TN,1898,1904,NA,NA
GRIGGSTOWN,NJ,1837,1920,40.4378831,-74.6132128
GRIMMTOWN,MS,1886,1888,NA,NA
GRINNELL,MO,1878,1878,NA,NA
GRISWOLDVILLE,GA,1849,1928,32.8706936,-83.4887852
GROVE,PA,1832,1843,40.0048297,-75.6346579
GROVER,LA,1885,1888,NA,NA
GROVER,AL,1887,1889,34.6125918,-87.5416932
GROVER,NJ,1887,1905,NA,NA
GROVER,SC,1893,NA,33.1058586,-80.5935789
GUILD,MO,1908,1932,37.0700527,-91.8018142
GUILFORD,NY,1820,NA,42.4056219,-75.491031
GUIN,SC,1898,1907,NA,NA
GULF VIEW,MS,1887,1901,30.2668629,-89.4492169
GUM,AR,1910,1912,NA,NA
GURNEE,AL,1890,1916,33.189561,-86.9686028
HABERSHAM,GA,1820,1823,34.590653,-83.5610061
HABOLICHITTO,MS,1832,1870,NA,NA
HACKENSACK,NJ,1797,NA,40.8855393,-74.0435395
HADDAM NECK,CT,1853,1910,41.5117658,-72.5153664
HAGAMAN,NY,1893,NA,42.9745457,-74.1508279
HAGEVO,PA,1912,1926,40.1814663,-78.8139106
HAHN,MO,1895,1954,37.2053302,-90.0698248
HAIDEE,PA,1876,1884,NA,NA
HAINES LANDING,ME,1888,1935,NA,NA
HALE SPRINGS,TN,1883,1903,36.4484263,-83.0554453
HALFWAY,GA,1891,1906,34.4792624,-83.9099073
HALFWAY,PA,1870,1871,NA,NA
HALIFAX,MS,1902,1913,NA,NA
HALL,GA,1851,1860,NA,NA
HALL,SC,1900,1904,32.9912794,-80.5556566
HALLS HILL,TN,1850,1904,35.8697878,-86.2349917
HALLINGTON,CT,1874,1876,NA,NA
HALLSA'S FERRY,MO,1850,1874,40.4644372,-95.0994204
HAMILTON,GA,1828,NA,32.7576458,-84.8757507
HAMILTON SQUARE,NJ,1844,1954,40.2273316,-74.6532133
HAMPTON FERRY,NY,1884,1899,NA,NA
HANKINSON,MS,1897,1944,32.1065427,-90.8795485
HANOVER,MO,1864,1885,38.2250547,-90.4315109
HAPPY LAND,AL,1878,1909,33.0890102,-85.450784
HARACE,MS,1902,1905,NA,NA
HARAHAN,LA,1917,1951,29.9382604,-90.1928532
HARBESON CITY,FL,1925,1942,29.8963185,-84.6457372
HARDEETOWN,FL,1920,1939,29.4916284,-82.8637314
HARDEMAN,GA,1884,1904,NA,NA
HARDENVILLE,MO,1921,NA,36.5887919,-92.3706828
HARDINGS POINT,AR,1851,1851,NA,NA
HARDIN'S MILLS,GA,1840,1850,NA,NA
HARDINSVILLE,AL,1819,1824,NA,NA
HARES VALLEY,PA,1879,1903,NA,NA
HARELSON,LA,1909,1931,30.4340798,-91.0659374
HARFORD,NY,1826,NA,42.4274131,-76.2300621
HARKNESS,NY,1888,1933,44.5236581,-73.5695816
HARLEMVILLE,NY,1838,1907,42.2703653,-73.5942845
HARMONIA,FL,1891,1891,NA,NA
HARMONIE,PA,1819,1827,40.801454,-80.1272826
HARMONSBURG,PA,1825,NA,41.6616663,-80.317364
HARMONY,MO,1827,1874,37.8394905,-90.9959667
HARMONY,TN,1834,1845,NA,NA
HARMONY,ME,1819,NA,44.977404,-69.5473783
HARMONY,SC,1889,1915,34.8401443,-80.9556328
HARPENDING'S CORNERS,NY,1826,1834,42.5234044,-76.976631
HARPER,FL,1907,1914,30.4454757,-86.8791272
HARPER SPRINGS,AR,1925,1931,NA,NA
HARPER,SC,1877,1909,NA,NA
HARPERSVILLE,MS,1836,1844,NA,NA
HARPS,PA,1901,1905,NA,NA
HARRIGAN,TN,1905,1922,35.508405,-85.704144
HART LOT,NY,1850,1982,43.0111769,-76.4574362
HARTFORD,AL,1895,NA,31.1032332,-85.6974334
HARTFORD,GA,1887,1905,NA,NA
HARTFORD,MS,1871,1872,NA,NA
HART'S BLUFF,LA,1860,1866,NA,NA
HARTSELLE,AL,1872,NA,34.443568,-86.939219
HARTSVILLE,TN,1807,NA,36.3908462,-86.1678673
HARTWOOD,NY,1841,1953,41.5353696,-74.6976621
HARWOOD,AR,1894,1926,33.1628986,-91.128164
HASTAIN,MO,1884,1951,38.2019721,-93.1763102
HASTINGS,NY,1828,NA,43.3743065,-76.1530454
HASTY,AR,1902,NA,36.0149445,-93.0474892
HAT,GA,1881,1905,NA,NA
HATCHER,LA,1890,1914,NA,NA
HATCHER,GA,1929,1963,31.8148842,-85.0135388
HATCHETT CREEK,AL,1878,1904,33.1856716,-86.0496908
HATCHIE,MS,1885,1910,34.7006511,-88.7636681
HATFIELD,MA,1806,NA,42.3728551,-72.5985936
HAVERHILL,MA,1793,NA,42.7736347,-71.0818933
HAWCREEK,MO,1896,1901,39.5192125,-91.2554224
HAWKINS,NJ,1885,1886,NA,NA
HAWKS HILL,CT,1857,1858,41.802876,-72.2236894
HAWLEY,PA,1849,NA,41.4779346,-75.1846504
HAYS GROVE,PA,1890,1913,40.0937006,-77.3710958
HAYES,LA,1903,NA,30.1077083,-92.92015
HAYMOCK,ME,1907,1909,NA,NA
HAYS PARK,PA,1902,1904,NA,NA
HAYSVILLE,MO,1854,1856,NA,NA
HAZELDELL,PA,1872,1917,40.8617303,-80.2864515
HAZELVILLE,MO,1879,1896,NA,NA
HAZEN,GA,1887,1912,33.6209662,-82.2751229
HAZLET,NJ,1876,NA,40.4214624,-74.1845383
HAZLETON,MO,1890,1944,37.5250439,-92.0248806
HEAD OF TENNESSEE,GA,1852,1878,34.9573134,-83.3862677
HEAD RIVER,GA,1913,1959,34.6570257,-85.5074631
HECKATOO [HICKATOO],AR,1832,1894,NA,NA
HECTORVILLE,VT,1893,1899,44.8383807,-72.6084534
HEIBERGER,AL,1904,1959,32.7612397,-87.2833323
HELEN,GA,1913,NA,34.6980183,-83.7197299
HELEN,PA,1902,1922,39.9711868,-79.7808763
HELENA,MS,1910,1924,30.4946428,-88.4958486
HELLER,PA,1887,1903,NA,NA
HEMPLAND,MO,1857,1860,NA,NA
HENDERSON,GA,1832,1907,32.3412677,-83.789347
HENDERSON'S TAVERN,LA,1817,1819,NA,NA
HENRIETTA,MO,1867,1869,NA,NA
HERBERT,LA,1897,1898,NA,NA
HERBERT,SC,1883,1903,34.5031969,-81.4239882
HERMONDALE,MO,1919,1955,36.0161823,-89.914809
HERNANDO,FL,1882,NA,28.8990605,-82.3713249
HERO,PA,1886,1891,NA,NA
HERO,PA,1899,1917,39.7242469,-80.3481303
HESS ROAD STATION,NY,1877,1895,43.3275563,-78.6480878
HETRICK'S,PA,1828,1876,NA,NA
HIBERNIA,FL,1849,1931,30.0652411,-81.6975933
HICKORY,AL,1902,1917,33.1629,-88.0630795
HICKORY GROVE,AL,1831,1866,32.0657023,-86.4063586
HICKORY HILL,MO,1862,1866,NA,NA
HICO,GA,1887,1904,33.6495543,-84.7760473
HIGH BLUE,MO,1860,1872,38.8244525,-94.5666213
HIGH BRIDGE,GA,1846,1849,NA,NA
HIGH FALL,AL,1859,1871,NA,NA
HIGH POINT,FL,1912,1915,30.2957538,-85.5827039
HIGHLAND,NY,1841,1843,NA,NA
HIGHLAND CITY,FL,1926,NA,27.9678915,-81.8825102
HIGHT,MS,1915,1926,32.9542959,-89.0653397
HIGHVILLE,PA,1850,1909,39.9467663,-76.4166291
HILL,AR,1883,1885,NA,NA
HILL CITY,TN,1884,1912,NA,NA
HILL TOP,PA,1837,1857,NA,NA
HILLS SPRINGS,LA,1880,1898,30.4691806,-90.9549517
HILLS BRANCH,NY,1874,1882,NA,NA
HILL'S FACTORY,SC,1872,1879,NA,NA
HILLSBORO,NH,1908,NA,43.1147612,-71.8964681
HILLSBORO CENTER,NH,1833,1918,43.1450789,-71.933692
HILLSBOROUGH,NY,1848,1868,NA,NA
HILLSIDE,MS,1874,1905,34.5445412,-88.3000453
HILOCHEE,AR,1850,1868,NA,NA
HILTON,MO,1875,1877,NA,NA
HINER'S RUN,PA,1838,1844,NA,NA
HINKLE,SC,1887,1891,NA,NA
HINKLETOWN,PA,1826,1914,40.1481512,-76.1299491
HIWASSEE COLLEGE,TN,1852,1902,35.557854,-84.3624229
HOAR,AL,1903,1907,NA,NA
HOBAN HEIGHTS,PA,1922,1973,41.4720218,-75.8949198
HOBART,AR,1879,1921,35.230087,-93.4151839
HODGES,SC,1852,NA,34.2876186,-82.2442889
HOFWYL,SC,1898,1900,NA,NA
HOLLINGER,AL,1881,1881,NA,NA
HOLLIS,ME,1853,1908,43.6125861,-70.5463485
HOLLY,GA,1853,1860,NA,NA
HOLLY LEAF,TN,1854,1902,36.0483979,-88.6967256
HOLLYWOOD,LA,1952,1968,30.9504559,-91.4092805
HOLM,AR,1871,1881,36.0955301,-94.2142046
HOLSCHEN LANDING,MO,1891,1898,NA,NA
HOLYOKE,TN,1858,1859,NA,NA
HOLYOKE,MA,1850,NA,42.2080831,-72.6100072
HOMELAND,FL,1885,NA,27.817655,-81.8248039
HOMEWOOD,AL,1898,1914,31.3696119,-87.5994351
HONEOYE,NY,1834,NA,42.7891799,-77.5095264
HONEY,AR,1896,1910,NA,NA
HONEY HILL,SC,1881,1954,33.1904459,-79.5756234
HONNEDAGA,NY,1891,1915,NA,NA
HOOPER'S MILLS,AL,1874,1883,NA,NA
HOPE,GA,1888,1903,NA,NA
HOPEWELL,TN,1836,1842,36.3009296,-83.0351627
HOPEWELL,NY,1823,1904,42.90018,-77.1885073
HOPKINSVILLE,AL,1861,1867,NA,NA
HOREB,GA,1821,1823,NA,NA
HORINE STATION,MO,1862,1916,38.2667215,-90.4245658
HORNBY,NY,1826,1911,42.2442412,-77.0441341
HORNBY,PA,1883,1903,42.1161671,-79.8628288
HORSE HEAD,AR,1837,1878,NA,NA
HOSSVILLE,TN,1894,1899,NA,NA
HOT SPRINGS NATIONAL PARK,AR,1922,NA,34.4644599,-93.0709162
HOTTELVILLE,PA,1909,1941,41.3531186,-79.1558732
HOUSTON,PA,1901,NA,40.2494771,-80.207211
HOWARD,MO,1897,1903,37.1743504,-94.5544774
HOWARD,AR,1869,1882,NA,NA
HOWARD,ME,1868,1898,NA,NA
HOWARDVILLE,NY,1875,1902,43.4628478,-76.0526995
HOWELLS CROSS ROADS,AL,1852,1885,NA,NA
HOYT,PA,1879,1908,NA,NA
HUBBARDTOWN,MS,1901,1908,NA,NA
HUBERTA,AL,1840,1842,NA,NA
HUDDLESTON,AR,1911,1928,34.5862128,-93.8454759
HUDGENS,TN,1880,1904,NA,NA
HUDSON,AL,1889,1904,31.5557175,-86.3035686
HUFSAW [HUSSAW],AR,1848,1852,NA,NA
HUGHES,MO,1872,1901,40.198422,-94.9986986
HUGHES,AL,1899,1917,NA,NA
HUGHESVILLE,MO,1872,NA,38.836743,-93.2957922
HUGHESVILLE,SC,1828,1828,NA,NA
HULACO,AL,1855,1904,34.312317,-86.5986038
HULLS COVE,ME,1887,NA,44.4128139,-68.2512689
HULMEVILLE,PA,1809,1956,40.1431655,-74.9109996
HUNNEWELL,MO,1880,NA,39.6670682,-91.8598987
HUNT,NY,1873,NA,42.5466566,-77.9917422
HUNTER'S RANGE,PA,1849,1850,NA,NA
HUNTER'S TURN OUT,GA,1872,1872,NA,NA
HUNTINGTON,NY,1794,NA,40.8725149,-73.4293222
HUNT'S MILLS,NJ,1868,1888,41.0978746,-74.7509984
HUNTSDALE,PA,1882,1955,40.1023118,-77.3074839
HURON,MO,1897,1918,37.715871,-93.3532515
HURON,TN,1889,NA,35.5875722,-88.5317175
HURRICANE,LA,1844,1859,NA,NA
HURRICANE,AR,1843,1852,NA,NA
HURRICANE CREEK,AR,1849,1854,NA,NA
HURST,MO,1900,1919,37.2367168,-92.086824
HURST,FL,1900,1908,NA,NA
HUSTONVILLE,PA,1879,1882,NA,NA
HUTSON,AR,1906,1931,35.6353564,-91.51069
HUTSON,MS,1899,1904,NA,NA
HUXFORD,MS,1904,1908,NA,NA
HYANNIS PORT,MA,1829,NA,41.6322546,-70.3028409
HYATT,AL,1882,1905,34.2342615,-86.343038
HYDE,LA,1894,1906,30.8251832,-90.5114829
HYDE PARK,PA,1832,1883,41.4156352,-75.6865795
HYPERION,PA,1880,1880,NA,NA
ICHETUCHNEE,FL,1859,1887,NA,NA
IESPER,MO,1893,1904,40.5289085,-92.8521443
IMMACULATE,LA,1909,1911,30.7249163,-91.9709488
INABUET,MS,1900,1904,NA,NA
INDEPENDENCE,AR,1888,1908,36.3125678,-92.4898837
INDEX,NY,1902,1915,42.6653531,-74.9590453
INDIAN FORD,FL,1913,1926,30.7135236,-86.9238511
INDIAN GROVE,MO,1878,1906,39.5105803,-93.0349194
INDIAN KEY,FL,1833,1880,NA,NA
INDIAN PASS,FL,1906,1932,29.6904903,-85.2643618
INDIAN RIVER,ME,1837,1933,44.5720224,-67.6427725
INDIAN SPRINGS,FL,1883,1892,NA,NA
INDIAN SPRINGS,FL,1904,1931,NA,NA
INGHAM MILLS,NY,1866,1902,43.0464598,-74.7840376
INGLESIDE,TN,1852,1871,NA,NA
INGLIS,FL,1899,NA,29.0328488,-82.6710835
INGRAM,AL,1894,1907,32.8701268,-87.5419496
INKERMAN,PA,1885,1913,41.2989695,-75.8126944
INWOOD,FL,1889,1928,30.7004702,-84.9740893
IRELAND HILL,AL,1869,1905,NA,NA
IRENE,SC,1892,1908,33.9320929,-81.2384331
IREVILLE,AL,1893,1897,NA,NA
IRONTON,AR,1888,1906,34.6320375,-92.2773725
IRONVILLE,AL,1860,1905,32.8006834,-87.3427782
IRVINE,FL,1871,1973,29.4055273,-82.2512098
IRVINGSVILLE,NY,1833,1841,NA,NA
IRWIN,PA,1878,1883,41.2255685,-79.9510034
ISLAND TWENTY SIX,TN,1888,1891,NA,NA
ISLEFORD,TN,1893,1895,35.6209033,-85.6791451
IVY,TN,1867,1870,NA,NA
IVYTOWN,TN,1926,1962,36.4036766,-85.1519028
JANES STORE,AR,1867,1888,36.316455,-91.2226306
JACK,MS,1899,1905,32.0173777,-90.570097
JACKET,MO,1911,1930,36.5103506,-94.1079822
JACKMANTOWN,ME,1872,1895,NA,NA
JACKSON,AR,1896,1906,33.5942209,-93.16129
JACKSONBOROUGH,NY,1830,1842,NA,NA
JACKSON'S BLUFF,FL,1856,1860,30.3890861,-84.641855
JACKSONS GAP,AL,1874,NA,32.8874068,-85.8138916
JACKSONWALD,PA,1870,1956,40.3245373,-75.8496454
JAMAICA,NY,1794,NA,40.70766,-73.797751
JAMESTOWN,MS,1907,1916,31.183512,-89.8553579
JAMESVILLE,NY,1811,NA,42.9928838,-76.0718225
JARVIS,MO,1888,1900,38.2681107,-90.4942902
JAY,GA,1880,1899,34.56037,-84.0729684
JAYELL,TN,1897,1900,NA,NA
JEANNETTE,PA,1888,NA,40.327011,-79.6192256
JEFFERS,SC,1898,1900,NA,NA
JEFFERSON,ME,1905,NA,44.203932,-69.4630496
JEFFERSON CITY,TN,1901,NA,36.1257092,-83.4918111
JEFFERSON MINES,AL,1875,1880,33.7778796,-86.8130499
JELKS,AL,1903,1909,NA,NA
JENKINS BRIDGE,MO,1849,1863,NA,NA
JENNERS,PA,1895,1966,40.1431318,-79.0428052
JERNIGAN,AL,1876,1907,32.1262648,-85.0721536
JEROME,NY,1869,1884,NA,NA
JINKS,GA,1897,1901,NA,NA
JOBS CORNER,PA,1887,1904,41.9317409,-76.9357958
JOE,TN,1881,1891,NA,NA
JOHNSON'S MILL,MO,1875,1876,37.5186538,-93.7738213
JOHNSON'S MILLS,AL,1869,1878,NA,NA
JONES,AR,1907,1908,NA,NA
JONES VALLEY,TN,1875,1903,35.7597907,-87.2536209
JONESBORO,MS,1852,1908,34.9270351,-88.8531136
JONESVILLE,VT,1851,NA,44.3838663,-72.9372726
JOPLIN CITY,MO,1872,1877,NA,NA
JORDONIA,TN,1887,1901,36.2092222,-86.8652778
JOY,LA,1895,1903,NA,NA
JOY,MO,1887,1889,NA,NA
JOY,AR,1897,1917,35.2875833,-91.9504224
JOYCE,LA,1917,NA,31.9409966,-92.5932031
JUDSON,FL,1886,1912,NA,NA
JULIA,FL,1898,1904,NA,NA
JULIA,GA,1908,1945,32.1565422,-84.9035378
KAMPE,NJ,1897,1915,41.1670401,-74.4562675
KANONA,NY,1852,NA,42.3725585,-77.3658944
KAPLAN,LA,1902,NA,30.0004839,-92.2854071
KARTAH,GA,1886,1903,34.4478655,-85.2485646
KASIESVILLE,PA,1893,1905,39.7487048,-77.8911089
KATY,MO,1894,1908,37.8283735,-94.5716236
KEDRON,LA,1905,1915,30.7565735,-90.5773168
KEENERS,MO,1877,1879,36.9292197,-90.5251148
KEEN'S MILLS,ME,1873,1927,44.290347,-70.1892218
KEESE,TN,1889,1901,36.2528478,-84.9402308
KEISTERVILLE,PA,1923,NA,39.9635503,-79.7858931
KEITH,GA,1881,1907,34.9181325,-85.0418927
KEITHVILLE,LA,1885,NA,32.3337277,-93.828683
KELLY POINT,PA,1868,1903,40.9920287,-76.9355213
KELLYS FERRY,TN,1878,1907,35.0322977,-85.4366277
KELLYTON,AL,1874,NA,32.9795279,-86.0331832
KELTONBURGH,TN,1884,1908,35.8761769,-85.7472051
KEMP HILL,PA,1866,1866,NA,NA
KEMPER,SC,1899,1933,34.328218,-79.1994856
KENDAL GREEN,MA,1886,1943,42.379818,-71.2817237
KENDALL CREEK,PA,1841,1898,NA,NA
KENDALLS CROSS ROADS,AL,1856,1874,32.8367943,-85.5071733
KENDRICK,MS,1889,1943,34.9703648,-88.381711
KENDRICK'S CREEK,TN,1866,1901,36.4792692,-82.5048703
KENILWORTH,NJ,1905,NA,40.6768378,-74.2869785
KENNEDY,MO,1890,1915,36.2645119,-89.590078
KENNEDY,PA,1884,1904,41.680071,-77.4283124
KENTS,AL,1906,1907,31.9526511,-86.1746828
KENTVILLE,TN,1897,1903,36.2348331,-82.2151316
KENZIE,AR,1875,1889,NA,NA
KETTERMAN,MO,1885,1904,37.9583679,-94.2852262
KEUKA,NY,1852,1951,42.4920153,-77.1219159
KEY,AL,1880,1936,34.1025972,-85.5344042
KEYSTONE,PA,1851,1906,40.3261981,-77.0549782
KEZAR FALLS,ME,1839,NA,NA,NA
KIDDRIDGE,MO,1873,1881,NA,NA
KILLIAN,GA,1896,1897,NA,NA
KIMBERLY,MO,1900,1905,39.4317014,-92.4890712
KIMBERTON,PA,1820,NA,40.1299167,-75.5757122
KIMPTON,MO,1889,1902,38.7177879,-94.3688379
KINDERHOOK,NY,1786,NA,42.3950914,-73.6970655
KING'S BRIDGE,NY,1839,1863,40.8787108,-73.9051362
KINGSBURY,ME,1931,1953,45.1194988,-69.6492194
KINGSTON,NJ,1823,NA,NA,NA
KINGSVILLE,AR,1888,1907,36.2842335,-91.220686
KINGVILLE,SC,1855,1915,33.805710500000004,-80.6975883
KINGWOOD,PA,1863,1907,39.9014655,-79.2686434
KINHAW,AL,1891,1902,32.2648668,-85.7841194
KINLAW,GA,1902,1920,30.8446781,-81.6756591
KIRBY,AR,1879,NA,34.2496925,-93.6422738
KIRBY,MS,1902,1921,31.5115579,-90.9809351
KIRKLAND,NY,1829,1941,43.0778474,-75.3832261
KIRKWOOD,NJ,1868,1987,39.8312252,-74.9912783
KITCHING'S MILL,SC,1847,1925,33.5784799,-81.4773273
KLINE,TN,1892,1904,NA,NA
KNECHTS,PA,1898,1904,40.8109289,-75.3351809
KNIGHTS STATION,MO,1873,1879,37.140337,-94.2513318
KNOBTON,TN,1883,1895,NA,NA
KNOX,ME,1897,1903,44.5177218,-69.2116142
KNOXVILLE,MO,1838,1904,39.4461207,-94.0168846
KOGER,GA,1899,1906,NA,NA
KOLIN,LA,1917,1959,31.2832391,-92.322633
KOWALIGA,AL,1873,1907,32.7401287,-85.9691293
KREADY,PA,1891,1898,40.1427778,-76.4394444
KREAMER,PA,1856,NA,40.8028646,-76.9669268
KREIS,TN,1881,1903,35.9292429,-84.4407639
KRESS,PA,1900,1921,NA,NA
KRUMSVILLE,PA,1885,1920,40.5787052,-75.7971404
KRUMVILLE,NY,1889,1981,41.8848151,-74.2423697
KUTTANIA,MO,1922,1923,NA,NA
KYLE,AR,1900,1902,NA,NA
KYSORVILLE,NY,1839,1865,42.6486757,-77.7927772
LA BELLE,MO,1856,NA,40.1163069,-91.9116894
LA CROSSE,FL,1881,NA,29.8415604,-82.4053605
LABORATORY,PA,1887,1902,40.1550713,-80.2133927
LACKLAND,AR,1888,1907,33.7459438,-93.2168336
LADDONIA,MO,1871,NA,39.2416878,-91.6434414
LAFARGEVILLE,NY,1824,NA,44.1947726,-75.9660514
LAFLIN,PA,1889,1920,41.2889696,-75.8054718
LAGARDE,AL,1900,1914,NA,NA
LAIDIG,PA,1884,1955,40.0284186,-78.0830609
LAKASSINE,LA,1874,1877,30.235485,-92.9215367
LAKE CITY,AR,1886,NA,35.8178326,-90.4476335
LAKE COMO,NJ,1887,1956,40.1598364,-74.0281925
LAKE DUNMORE,VT,1901,1956,43.9089511,-73.0870586
LAKE JESSUP,FL,1874,1886,NA,NA
LAKE MOXIE,ME,1907,1933,45.3511617,-69.8842267
LAKE PARK,GA,1890,NA,30.6843772,-83.2108803
LAKE PLACID CLUB,NY,1905,1958,NA,NA
LAKECREEK,MO,1897,1914,38.5114093,-93.1335359
LAKENAN,MO,1859,1966,39.6722617,-91.9510021
LAKEPORT,AR,1875,1921,33.2251194,-91.1267752
LAMBERT,MS,1904,NA,34.2029829,-90.2828572
LAMBERT,SC,1885,1911,33.7537774,-79.4475566
LAMONA,PA,1902,1907,NA,NA
LAMONTE,MO,1858,1924,38.7741811,-93.4252099
LAMOURIE BRIDGE,LA,1834,1835,NA,NA
LAMPTON,MS,1901,1908,31.1932343,-89.7981339
LANCASTER,FL,1896,1906,30.24911,-83.202916
LAND O LAKES,FL,1950,NA,28.2341772,-82.4581264
LANES,AL,1894,1904,NA,NA
LANESVILLE,LA,1884,1912,NA,NA
LANSDLE,NJ,1894,1896,NA,NA
LANTY,AR,1899,1954,35.3364694,-92.6857185
LAPARK,PA,1902,1930,NA,NA
L'ARGENT,MS,1892,1907,NA,NA
LARK SPUR,PA,1852,1853,NA,NA
LARKINS LANDING,AL,1900,1901,34.5784194,-86.0452565
LARNESVILLE,AR,1856,1857,NA,NA
LARUE,PA,1889,1936,39.8203792,-76.7602497
LASSITER,LA,1882,1885,31.9287762,-93.6310141
LASSITER,AR,1910,1911,NA,NA
LATHAM,AR,1888,1918,35.5667452,-92.6959969
LATHROP,MO,1868,NA,39.5484793,-94.329491
LATOUR,AR,1881,1920,34.5762113,-90.7412222
LAUDERDALE FACTORY,AL,1850,1860,NA,NA
LAUREL,FL,1903,NA,27.1382172,-82.4534387
LAUREL,MS,1884,NA,31.6948794,-89.1293204
LAUREL,NY,1898,NA,40.9651069,-72.5653011
LAURELHILL,TN,1911,1919,35.4031326,-87.5097405
LAWN WOOD,NY,1892,1896,NA,NA
LAWRENCE STATION,NJ,1870,1908,40.2739973,-74.6796032
LAWRENCEVILLE,AR,1838,1880,34.5092655,-91.1809536
LAWRENCEVILLE,NY,1829,NA,44.7750543,-74.6496291
LAXTON,TN,1908,1914,NA,NA
LAYTON,MO,1888,1889,NA,NA
LAYTON,AR,1887,1908,35.4868824,-91.1632628
LEAR,MS,1899,1907,NA,NA
LECONT,AR,1890,1905,NA,NA
LEE,FL,1882,NA,30.4228706,-83.3067513
LEE,ME,1833,NA,45.3598617,-68.282878
LEEDSVILLE,AR,1892,1895,NA,NA
LEEDSVILLE,NJ,1833,1878,40.3306656,-74.1209748
LEESBURG,FL,1871,NA,28.798886,-81.8890375
LEESBURG,GA,1873,NA,31.7192246,-84.1677229
LEESDALE,MS,1918,1937,31.5468338,-91.1578847
LEEVILLE,TN,1877,1904,36.1908884,-86.4174929
LEFAY,LA,1909,1919,32.6040264,-91.4778953
LEHIGH,NY,1892,1906,42.9475597,-78.3386306
LELAND,FL,1891,1902,30.6104854,-83.3254262
LENA,SC,1900,1975,32.7535025,-81.2151029
LENARD,FL,1883,1900,NA,NA
LENUDE'S FERRY,SC,1851,1866,NA,NA
LEO,MO,1894,1905,36.599228600000004,-91.8357041
LEOLA,AL,1896,1914,34.3917643,-87.3172414
LEOLA,AL,1892,1894,NA,NA
LEON,TN,1898,1904,NA,NA
LEON,TN,1836,1842,NA,NA
LEON,AL,1856,1906,31.5576619,-86.3927388
LEON,SC,1886,1905,33.9246161,-78.7627975
LEONARD BRIDGE,CT,1892,1931,NA,NA
LESTERVILLE,MO,1838,NA,37.453568,-90.8422074
LEVIN,PA,1892,1911,NA,NA
LEWIS,TN,1833,1833,NA,NA
LEWISTON,TN,1867,1869,NA,NA
LIBERTY,TN,1808,NA,36.0054998,-85.9644052
LIBERTY,AR,1833,1834,36.2617278,-93.4468801
LIBERTY,PA,1824,NA,41.5580735,-77.1041055
LIBERTY HALL,GA,1810,1828,NA,NA
LIBERTYVILLE,NJ,1832,1892,41.2398175,-74.6543294
LICKING,MO,1844,1845,NA,NA
LIGGETT,PA,1900,1901,NA,NA
LIGHTFOOT,GA,1887,1903,NA,NA
LIGON,GA,1888,1902,34.1709294,-85.0068898
LILLY'S STORE,AL,1858,1867,NA,NA
LINCOLN'S FORD,TN,1834,1836,NA,NA
LINE,AR,1901,1928,NA,NA
LINGLE,MS,1900,1932,32.1957051,-89.5772926
LININGTON,MO,1890,1903,NA,NA
LINN,MS,1898,1919,33.6598373,-90.6164813
LINTON,AR,1900,1901,NA,NA
LINWOOD,AR,1874,1905,34.1537098,-91.7973541
LINWOOD,PA,1855,1859,NA,NA
LIONHILL,AR,1895,1902,NA,NA
LISSA,MS,1903,1909,NA,NA
LIST,SC,1890,1891,NA,NA
LITCH,GA,1909,1918,33.5476273,-83.2690493
LITTLE BEAVER,PA,1833,1837,NA,NA
LITTLE BRITAIN,NY,1803,1945,41.4781494,-74.1298673
LITTLE PRAIRIE,MO,1836,1860,NA,NA
LITTLE RIVER,NY,1892,1901,NA,NA
LITTLE ROCK,MS,1914,NA,32.5266529,-89.0252181
LITTLE SPRING,AR,1853,1876,NA,NA
LITTLEFIELD,ME,1901,1913,NA,NA
LITTLEVILLE,GA,1883,1898,NA,NA
LIVE OAK,AL,1875,1903,31.8084873,-86.2474614
LIZZARD LAKE,PA,1876,1882,NA,NA
LOBDELL,LA,1881,1955,30.4965788,-91.2603872
LOBOCCO,AL,1924,1932,32.2890317,-87.8658461
LOCKE MILLS,ME,1840,NA,44.4000663,-70.7020115
LOCKHART,LA,1897,1908,33.008192,-92.5832076
LODGE,TN,1895,1960,35.0745258,-85.8035855
LODI,AR,1888,1923,34.3109367,-93.7074115
LOFTIN,GA,1885,1906,33.4070586,-85.2543915
LOGANS LANDING,LA,1851,1852,NA,NA
LOGANSPORT,PA,1881,1924,40.7286757,-79.580324
LOGANVILLE,GA,1851,NA,33.8389977,-83.9007382
LOHMAN,MO,1882,NA,38.5415083,-92.3648538
LOMA,GA,1901,1902,NA,NA
LONDON,GA,1898,1899,NA,NA
LONDONDERRY,NH,1906,NA,42.8593622,-71.3546823
LONE SPRING,MO,1879,1908,37.9067006,-93.1843608
LONE STAR,MO,1873,1906,40.3413848,-94.2532889
LONG BRANCH CITY,NJ,1886,1902,NA,NA
LONG CREEK,AL,1858,1866,31.621548,-86.8244191
LONG VIEW,AL,1874,1939,33.2162265,-86.7919321
LONGBOAT,FL,1907,1922,NA,NA
LONGSTREET,SC,1830,1867,NA,NA
LONGWOOD,AL,1836,1836,NA,NA
LONNIE,LA,1908,1933,NA,NA
LOO,TN,1889,1903,36.3228575,-83.8515804
LOOKOUT VALLEY,TN,1834,1848,35.0211863,-85.372737
LOOMIS,NY,1880,1906,42.2086953,-75.2154495
LOONEYS CREEK,TN,1851,1890,35.1995178,-85.4785755
LOPEZ,AL,1897,1903,NA,NA
LORDVILLE,NY,1855,1967,41.8692544,-75.2151717
LORRAINE,NY,1810,NA,43.7659482,-75.9582267
LOTTA,AR,1898,1900,NA,NA
LOTTSVILLE,PA,1828,1924,41.9517233,-79.4333836
LOUCILE,PA,1897,1901,NA,NA
LOUGHRIDGES,GA,1828,1835,34.8663953,-84.7523376
LOUISVILLE,TN,1823,NA,35.817915,-84.0293825
LOUNSBURY,NY,1888,1891,42.0581299,-76.3357691
LOUTER,LA,1901,1916,NA,NA
LOUTRE  ISLAND,MO,1818,1894,38.7550029,-91.4688244
LOVE,MO,1860,1860,NA,NA
LOVETT,PA,1892,1904,40.3306306,-78.7447424
LOWE,GA,1884,1903,NA,NA
LOWENBURG'S STATION,MS,1877,1887,NA,NA
LOWER BERN,PA,1841,1886,NA,NA
LOWER PEACH TREE,AL,1823,NA,31.8406734,-87.5449181
LOWHILL PORT,PA,1831,1834,NA,NA
LOWLAND,TN,1891,NA,36.1523171,-83.208498
LOWNDES,AL,1830,1832,32.15475,-86.6501077
LOYD,AL,1888,1905,NA,NA
LUCKNOW,PA,1905,1937,40.3275881,-76.8858069
LUCKY,PA,1888,1903,39.9037116,-76.4455189
LULA,TN,1901,1955,35.4792417,-88.4347682
LUNDELL,AR,1914,1972,34.1920489,-90.962332
LUNGERVILLE,PA,1895,1907,41.2775823,-76.5118929
LUNSFORD,AR,1892,1933,35.7572987,-90.4803837
LUPONT,GA,1897,1905,NA,NA
LUPUS,MO,1884,1955,38.8461451,-92.4532424
LURAY,SC,1891,NA,32.8134702,-81.2397429
LUTRELL,TN,1890,NA,36.2028853,-83.7440525
LUTTS,TN,1888,NA,35.1510122,-87.9395821
LUTZ,FL,1912,NA,28.1421307,-82.461136
LUZERNE,PA,1866,1904,41.2834657,-75.8954599
LYCEUM,TN,1898,1903,NA,NA
LYCOMING FURNACE,PA,1817,1819,NA,NA
LYNDELL,PA,1880,NA,40.0595279,-75.7445507
LYNDHURST,NJ,1882,1902,40.8113015,-74.123671
LYNDONVILLE,VT,1868,NA,44.533965,-72.003188
LYNN,AL,1888,NA,34.0469416,-87.5505748
MAB,LA,1936,1942,30.8543597,-92.7626474
MABBETTSVILLE,NY,1833,1903,41.7925937,-73.6595723
MACEDONIA,MS,1875,1888,34.362604,-88.7956119
MACOM,FL,1909,1914,30.5785266,-85.6310407
MACON,AL,1833,1861,NA,NA
MADAWASKA,ME,1851,1877,47.3558124,-68.324309
MAGAZINE,AL,1894,1988,30.7343556,-88.0524991
MAGAZINE,AR,1867,NA,35.1507297,-93.8067851
MAGGIE,TN,1893,1906,NA,NA
MAGNOLIA,GA,1886,1887,NA,NA
MAGSDALE,SC,1883,1883,NA,NA
MAGUIRES STORE,AR,1853,1888,36.0264678,-94.0082547
MAHAN,GA,1905,1913,34.6592479,-85.389959
MAHLEP,AL,1899,1901,33.7448229,-85.8810782
MAHWAH,NJ,1870,NA,41.0936387,-74.1461243
MAITLAND,MO,1880,NA,40.2016744,-95.074283
MAITLAND,AL,1889,1903,NA,NA
MALLORY'S STORE,GA,1808,1822,NA,NA
MALTA,ME,1821,1822,44.3106264,-69.580599
MALTZ,AL,1899,1903,NA,NA
MANBECK,PA,1899,1902,NA,NA
MANCHESTER,LA,1902,1907,30.194374,-93.0970964
MANCHESTER CENTER,VT,1886,NA,43.1675518,-73.0474383
MANDA,MO,1901,1908,38.3942135,-91.5121052
MANDETTA,TN,1898,1903,NA,NA
MANGUM,TN,1882,1896,35.8370114,-85.8583186
MANILA,GA,1898,1903,NA,NA
MANNINGTON,FL,1833,1902,NA,NA
MANOKESY,PA,1833,1838,NA,NA
MANOR,MO,1840,1841,NA,NA
MANRING,TN,1905,1932,36.5584138,-83.8138071
MANSFIELD DEPOT,CT,1849,NA,41.8014872,-72.3064691
MANTON,MO,1860,1894,NA,NA
MAPLE  GROVE,PA,1857,1868,NA,NA
MAPLE GROVE,NY,1836,1906,42.4945215,-75.2476698
MAPLE SPRINGS,NY,1892,NA,42.1955829,-79.4214104
MAPLES,VT,1898,1903,NA,NA
MAPLEWOOD,SC,1879,1888,NA,NA
MARATHON,AL,1818,1824,NA,NA
MARGARETTVILLE,NY,1848,NA,42.1442905,-74.6550123
MARGERUM,AL,1880,1955,34.7670345,-88.0683721
MARIANNA,MS,1886,1911,34.7175987,-89.5989714
MARIANNA,PA,1909,NA,40.0218199,-80.0929206
MARIASVILLE,PA,1878,1902,41.2089501,-79.6606046
MARIETTA,MO,1849,1850,NA,NA
MARION,LA,1846,NA,32.901208,-92.2464487
MARION,FL,1877,1916,30.4413305,-82.946522
MARKS HILL,AR,1840,1841,36.0380353,-94.3406629
MARLOW,GA,1875,1957,32.2690873,-81.3906674
MARMION,TN,1867,1869,NA,NA
MARS,GA,1887,1902,NA,NA
MARSENA,AR,1930,1973,35.8803542,-92.7946114
MARSHALL'S FERRY,TN,1829,1892,NA,NA
MARSHALL'S FERRY,GA,1834,1838,NA,NA
MARSHLANDS,PA,1900,1913,41.713403,-77.5785952
MARSTON,LA,1888,1896,NA,NA
MARSTON,ME,1888,1889,44.6517448,-67.4416571
MARTHAVILLE,GA,1851,1853,32.4562623,-83.9401857
MARTLING,AL,1884,1955,34.367313,-86.1674786
MARTVILLE,NY,1831,NA,43.2791314,-76.6282705
MARVEL,TN,1899,1901,36.2306098,-86.6688855
MATNEY,TN,1881,1902,36.5981733,-81.7278944
MATTIE,MS,1902,1905,NA,NA
MAXWELL,MS,1885,1911,34.8953707,-89.2403484
MAXWELTON,GA,1899,1905,33.638165,-84.3879815
MAY,GA,1892,1896,NA,NA
MAYFIELD,TN,1850,1913,36.2814483,-85.6219223
MAYNARDVILLE,TN,1856,NA,36.2336864,-83.8335611
MC ADAMS,GA,1903,1906,NA,NA
MC CONNELLSVILLE,SC,1854,1951,34.8687483,-81.2275817
MC DONALD,AR,1858,1884,35.440632,-91.2467871
MC ELRATH,AR,1878,1879,NA,NA
MC GINTY,LA,1891,1895,NA,NA
MC GUIRE,MO,1905,1914,36.4981154,-89.9706466
MC HANEY,TN,1886,1904,35.811733,-88.5867207
MC HENRY,GA,1888,1907,34.4550884,-84.9466097
MC IVER,AL,1898,1910,NA,NA
MC KIBBEN,GA,1885,1902,NA,NA
MC KIES,SC,1882,1883,33.6234601,-82.1312269
MC KINNON,TN,1888,1966,36.3161662,-87.9069729
MC LAURIN,MS,1896,1955,31.1679579,-89.2172808
MC LEAN'S REST,TN,1855,1855,NA,NA
MC NEILL,MS,1891,NA,30.6665064,-89.6368125
MC NUTT,LA,1909,1912,31.3140695,-92.6476448
MC PHERSONVILLE,SC,1882,1943,32.6918437,-80.9192743
MCCAINSVILLE,NJ,1870,1889,40.8798213,-74.6184932
MCCOYSVILLE,PA,1842,1974,40.4531342,-77.5677683
MCCRACKEN,PA,1888,1918,39.8536902,-80.4759064
MCDONALD,PA,1872,NA,40.3679005,-80.2354702
MCFANN,PA,1893,1902,40.7270101,-79.9420018
MCGEES MILLS,PA,1884,1983,40.8817303,-78.7625303
MCINTYRE,FL,1894,1934,29.9813154,-84.5260138
MCWILLIAMS,PA,1833,1835,NA,NA
MEANS,AR,1902,1903,NA,NA
MECCA,TN,1880,1906,35.3542415,-84.4210371
MECHANICSVILLE,CT,1873,1983,41.9400977,-71.8936833
MECKVILLE,PA,1873,1935,40.4714798,-76.3810681
MEDDYBEMPS,ME,1842,NA,45.0377147,-67.3540735
MEDWAY,MA,1803,NA,42.1437085,-71.3931144
MEET,SC,1887,1904,NA,NA
MEHLINGER,MS,1917,1925,NA,NA
MELBOURNE,AL,1900,1935,33.572893,-88.2028102
MELLENVILLE,NY,1837,NA,42.2524024,-73.6686926
MELLWOOD,AR,1906,NA,34.2197487,-90.9509609
MELROSE,AL,1899,1918,31.3490568,-86.7369097
MELTON OLD FIELD,LA,1876,1877,30.4879678,-90.8614878
MELVIN MILLS,NH,1883,1955,43.2689659,-71.9134147
MEMPHIS,NY,1860,NA,43.0967846,-76.3846803
MENIFEE,AR,1881,NA,35.1472791,-92.5503703
MENLO PARK,NJ,1871,1966,40.5457605,-74.3369583
MENTONE,AL,1888,NA,34.5775884,-85.5855324
MERCER,AL,1893,1894,NA,NA
MERCURY,AL,1888,1908,34.7859237,-86.5361023
MERIDIAN,LA,1872,1900,32.8968014,-92.3437527
MERITT,GA,1886,1905,NA,NA
MERRICKVILLE,NY,1879,1951,42.2753611,-75.1782259
MERRYALL,PA,1838,1904,41.6986864,-76.2304883
MERRYVILLE,LA,1881,NA,30.7546447,-93.540451
MERWINSVILLE,CT,1853,1861,41.6393615,-73.4820772
MESSERSBURG,PA,1802,1812,39.8258817,-77.9039967
METCALF,LA,1896,1923,NA,NA
METHOIN,AL,1891,1892,NA,NA
METROPOLITAN,NY,1890,1904,NA,NA
MEXICO,MO,1837,NA,39.1717877,-91.8866892
MEYERS STORE,MO,1874,1891,38.5756039,-91.3279346
MIAKKA,FL,1879,1934,27.3131021,-82.2667578
MICHAEL,PA,1893,1895,NA,NA
MICKLEYS,PA,1892,1900,40.647319,-75.4954612
MIDDLE GRANVILLE,MA,1806,1833,NA,NA
MIDDLE RIDGE,MO,1872,1873,NA,NA
MIDDLETON,MS,1837,1867,NA,NA
MIDGET,GA,1897,1903,NA,NA
MIDLAND,GA,1887,NA,32.5748116,-84.8257195
MIDLAND CITY,AL,1890,NA,31.3204501,-85.4954906
MIDLAND PARK,SC,1909,1926,32.9207294,-80.0406442
MIDWAY,LA,1872,1875,32.5723607,-91.4798397
MIDWAY,GA,1886,1907,33.1456782,-84.7318754
MIDWAY,GA,1858,1858,NA,NA
MIDWAY,MS,1869,1904,32.1690393,-90.3756486
MIERSBURG,LA,1894,1899,NA,NA
MIFLLIN CROSS ROADS,PA,1875,1901,40.9709196,-76.3152177
MIKESVILLE,FL,1871,1904,29.9466264,-82.6020636
MILBURN,NY,1859,1864,NA,NA
MILDRED,GA,1900,1902,NA,NA
MILESES,NY,1887,1984,41.836477,-75.0660006
MILESTON,MS,1888,1953,33.1104047,-90.2734201
MILFORD,MA,1829,NA,42.1387052,-71.5221627
MILITARY SPRINGS,AL,1879,1881,NA,NA
MILL,SC,1892,1894,NA,NA
MILL GROVE,MO,1850,1856,NA,NA
MILL VILLAGE,NH,1852,1942,43.3011865,-72.1478637
MILLBROOK,PA,1872,1904,41.2486695,-80.0608924
MILLDALE,LA,1907,1919,30.6676851,-91.027604
MILLER,MO,1891,NA,37.2150634,-93.8396503
MILLER,PA,1836,1837,NA,NA
MILLERTON,NY,1860,NA,41.9542345,-73.5064606
MILLERVILLE,AL,1889,NA,33.1915052,-85.9257985
MILLIKEN,NY,1906,1911,NA,NA
MILLINOCKET,ME,1895,NA,45.6550618,-68.7087616
MILLRY,AL,1859,NA,31.6328884,-88.3160986
MILLS,AR,1888,1888,NA,NA
MILLWOOD,GA,1887,NA,31.2657632,-82.660419
MIMS,FL,1886,NA,28.673148,-80.849357
MINA,NY,1824,1902,42.1300562,-79.6881039
MINAVILLE,MO,1881,1909,39.1672222,-94.4613889
MINERAL POINT,PA,1855,NA,40.379398,-78.8352555
MINEVILLE,NY,1870,NA,44.0882251,-73.5223225
MINGO,TN,1900,1903,NA,NA
MINNEQUA,PA,1869,1904,41.6739639,-76.8338473
MIOLA,PA,1884,1965,41.2520074,-79.3433768
MITCHELL,MS,1886,1910,34.7095401,-88.843115
MIXON,AL,1899,1902,NA,NA
MIXON,GA,1899,1900,NA,NA
MOBILE POINT,AL,1831,1835,30.2221485,-88.0283308
MODENA,MO,1858,1971,40.3002866,-93.6805008
MODENA,PA,1873,NA,39.9640117,-75.8060664
MODOC,SC,1882,NA,33.7334635,-82.2056768
MOHNTON,PA,1906,NA,40.2905841,-75.9783762
MOLINO,FL,1866,NA,30.7224451,-87.3253419
MOLLIE,MS,1905,1909,NA,NA
MOLLTOWN,PA,1839,1920,40.477316,-75.8804816
MOMAN,SC,1891,1895,NA,NA
MONA,AL,1898,1899,34.0250994,-85.6038504
MONRIOVIA,AL,1878,1904,34.786479,-86.7138863
MONROE CITY,MO,1860,NA,39.6561907,-91.7343391
MONROEVILLE,AL,1833,NA,31.5269009,-87.3236494
MONT MOOR,NY,1880,1891,41.096485,-73.9729162
MONTAGUE,ME,1888,1904,45.2372357,-68.6475456
MONTANA,NJ,1867,1904,40.7650986,-75.0673959
MONTGOMERY,MA,1839,1938,42.2067573,-72.8050955
MONTICELLO,MO,1834,NA,40.1188937,-91.7140183
MONTICELLO,AR,1849,NA,33.6479919,-91.7998967
MONTROSE,MO,1870,NA,38.2573135,-93.9795765
MONTROSE DEPOT,PA,1852,1877,NA,NA
MONTSERRAT,MO,1872,1954,38.7747347,-93.6218807
MOON LAKE,MS,1850,1872,34.4401055,-90.4953786
MOONSHINE,GA,1885,1888,NA,NA
MOORES HILL,TN,1877,1896,35.6811791,-88.205595
MOORESVILLE,TN,1827,1902,35.4400746,-86.9141698
MOOSEHORN,ME,1932,1945,45.3856035,-70.7942403
MORAN,GA,1897,1955,NA,NA
MOREHOUSEVILLE,NY,1834,1915,43.3909017,-74.7737668
MORELAND,NY,1825,1911,42.3078519,-76.906905
MORGAN,AR,1895,1906,NA,NA
MORGAN SPRING,TN,1888,1939,35.5614575,-85.1019015
MORGANS GROVE,MO,1879,1883,NA,NA
MORGANTON,AR,1886,1974,35.4736893,-92.3395996
MORGANTOWN,MS,1915,1994,31.3123978,-89.9159153
MORLEY,TN,1916,1988,36.5523027,-84.0474262
MORRELLTON,MO,1893,1953,38.3017174,-91.0406971
MORRISVILLE STATION,NY,1880,1953,42.8982494,-75.6463149
MORROW,MS,1890,1906,NA,NA
MORTIMER,AL,1900,1919,NA,NA
MOSCOW,MO,1874,1904,39.1663923,-94.541899
MOSS,MO,1892,1893,NA,NA
MOTLEY,AL,1888,1905,33.1170641,-85.6588459
MOUND BAYOU,MS,1860,1867,33.350954,-90.5631455
MOUNDS,AL,1887,1895,33.5581604,-86.8152687
MOUNT AUGUSTA,PA,1832,1834,NA,NA
MOUNT BRADDOCK,PA,1873,NA,39.9419362,-79.6460768
MOUNT EVA,AR,1878,1881,NA,NA
MOUNT GRETNA,PA,1899,NA,40.2475928,-76.4694104
MOUNT HENRY,AL,1822,1822,NA,NA
MOUNT HOLYOKE,TN,1834,1866,NA,NA
MOUNT HOPE,TN,1855,1855,36.2959338,-82.827102
MOUNT HOPE,SC,1830,1831,33.555715,-79.9889628
MOUNT LEONARD,MO,1878,1957,39.1241869,-93.392987
MOUNT MAGAZINE,AR,1915,1919,35.1639789,-93.646582
MOUNT MEIGS,AL,1827,NA,32.3618161,-86.1009662
MOUNT OLIVE,LA,1861,1866,32.8451372,-92.6798685
MOUNT OLIVE,MO,1877,1885,38.5353234,-90.29372
MOUNT OLIVE,MS,1858,NA,31.7615271,-89.6555049
MOUNT PLEASANT,PA,1811,1828,41.7398064,-75.4343484
MOUNT TABOR,SC,1837,1936,34.7973564,-81.5031525
MOUNT VERNON,ME,1801,1849,44.5011009,-69.9869996
MOUNT VIEW,TN,1827,1852,36.054505,-86.6188848
MOUNT WASHINGTON,PA,1868,1878,40.4302708,-80.0071912
MOUNT ZION,GA,1818,1872,33.3612512,-83.0076496
MOUNT ZION,MS,1849,1908,31.7890516,-89.7881313
MOUNTAIN,MS,1908,1922,30.8510218,-88.6933616
MOUNTAIN CREEK,AL,1875,1976,32.7106848,-86.4788657
MOUNTAIN VIEW,GA,1921,1984,33.6417761,-84.3902038
MOUNTAINVILLE,TN,1877,1907,35.5681358,-84.1415783
MOUNTAINVILLE,ME,1892,1914,44.2120246,-68.6289136
MOUTH OF WOLF,TN,1856,1895,36.6158967,-85.2944062
MOYER,PA,1880,1910,40.0495181,-79.5655938
MOYER'S STORE,PA,1864,1879,40.3695489,-75.2482306
MUDGE,GA,1883,1909,NA,NA
MUFF,PA,1879,1908,40.8845093,-79.3380963
MULAT,FL,1892,1953,30.5513061,-87.1233018
MULE CREEK,MO,1856,1869,NA,NA
MULTICAULISVILLE,PA,1840,1847,NA,NA
MUNSVILLE,NY,1851,NA,42.9767864,-75.5875829
MUNNERLYN,GA,1880,1960,32.9534899,-81.9620611
MURPHY,GA,1898,1900,NA,NA
MURRAY'S FERRY,SC,1832,1867,NA,NA
MURRY,MS,1886,1907,34.677602,-90.0862033
MYNARD,AL,1899,1904,34.3975896,-85.8946942
MYRTLE,GA,1881,1917,NA,NA
NACOOCHEE,GA,1826,1959,34.6850952,-83.7104557
NANCY,MS,1901,1915,31.9434865,-88.8425481
NANEPASHEMET,MA,1882,1902,42.4898184,-70.8428248
NANTICOKE SPRINGS,NY,1831,1861,42.2747964,-76.0540917
NAOMI,AL,1837,1837,NA,NA
NAPOLEON CITY,MO,1858,1861,NA,NA
NARONA,MO,1900,1903,NA,NA
NARROWSBURG,NY,1840,NA,41.6080926,-75.0611092
NASBY,PA,1870,1881,NA,NA
NASSAU,NY,1810,NA,42.5137774,-73.6123946
NATRONA HEIGHT'S,PA,1927,NA,40.6225048,-79.7246366
NATURAL GROVE,SC,1850,1866,NA,NA
NAVARINO,NY,1828,1907,42.9275666,-76.2738179
NEALSRUN,PA,1903,1905,NA,NA
NEBOSVILLE,TN,1900,1905,36.0567363,-89.130346
NECESSITY,AL,1878,1883,NA,NA
NEEDHAM,GA,1881,1907,31.1560499,-82.428467
NEEDHAM HEIGHTS,MA,1907,1913,42.2943253,-71.2349694
NEESES,SC,1898,NA,33.5318188,-81.1231541
NELLIE,AL,1887,1915,31.9015394,-87.38277
NELSON,MO,1887,NA,38.9947437,-93.0326962
NELSON,TN,1867,1883,NA,NA
NELSON,NH,1817,1934,42.9906361,-72.1309166
NEPONSET VILLAGE,MA,1839,1873,NA,NA
NESCONSET,NY,1908,NA,40.8338238,-73.1495652
NESHAMING,PA,1855,1855,40.2295522,-75.1387832
NESMITH,SC,1907,NA,33.6581944,-79.5141747
NESTOR,LA,1895,1927,29.4971608,-89.6961753
NETTLETONVILLE,MO,1870,1872,NA,NA
NEW  EGYPT,NJ,1810,NA,40.0687671,-74.5286239
NEW AGENCY,GA,1847,1848,NA,NA
NEW ALSACE,MO,1875,1891,NA,NA
NEW BOSTON,NY,1851,1903,43.800069,-75.7457479
NEW BRIDGE,NY,1906,1919,44.2864508,-74.9754731
NEW BRIGHTON,NY,1850,1917,40.6423258,-74.0929195
NEW BRITAIN,NY,1833,1858,42.454805,-73.4898339
NEW BRUNSWICK,NJ,1776,NA,40.4938273,-74.4461349
NEW CASCO,ME,1799,1800,NA,NA
NEW CASTLE,PA,1812,NA,40.9947582,-80.319096
NEW CENTREVILLE,PA,1857,1935,40.0703856,-75.429358
NEW COMO,AR,1873,1874,NA,NA
NEW COOSA,GA,1855,1857,NA,NA
NEW HAMBURG,MO,1874,1972,37.1264394,-89.5934198
NEW HOPE,AR,1874,1875,36.2145354,-91.9198748
NEW HOPE,SC,1886,1886,34.7281928,-81.3473159
NEW MOUNT PLEASANT,PA,1851,1870,NA,NA
NEW SHEFFIELD,PA,1849,1938,40.5989558,-80.2800613
NEW SUFFOLK,NY,1890,NA,40.9909016,-72.471847
NEW TOWAMENSING,PA,1828,1830,NA,NA
NEW TRIPOLI,PA,1831,NA,40.6792368,-75.7521571
NEW VERNON,NY,1822,1853,41.5017603,-74.4843255
NEWBURY OLD TOWN,MA,1874,1879,42.7667589,-70.8453293
NEWCOMER,PA,1901,1920,39.8792429,-79.7922695
NEWELLTON,LA,1880,NA,32.0726546,-91.2409459
NEWHEBRON,MS,1904,NA,31.7309262,-89.9798353
NEWHOPE,AR,1878,NA,34.2294899,-93.8843544
NEWLIN,LA,1906,1920,30.6807542,-93.4010005
NEWPORT,MO,1820,1857,38.5933835,-91.1245927
NEWSOMVILLE,TN,1876,1877,NA,NA
NEWVILLE,AL,1894,NA,31.4213579,-85.3358874
NEYLES,SC,1896,1909,32.825175,-80.5584367
NICE,NY,1890,1891,NA,NA
NICHOLS,CT,1882,1900,41.2409299,-73.1612225
NICHOLSON'S STORE,AL,1848,1883,31.9304297,-88.4589178
NILY,TN,1891,1902,NA,NA
NINNERVILLE,GA,1901,1903,NA,NA
NIPPO,NH,1899,1911,NA,NA
NITA,MS,1905,1908,NA,NA
NITTAW,FL,1934,1937,27.9586333,-81.0031185
NODENA,AR,1877,1924,35.5570254,-89.9495313
NORFOLK,MS,1854,1855,34.9514847,-90.2306509
NORFOLK,MS,1879,1913,34.9514847,-90.2306509
NORMAN,MS,1884,1889,NA,NA
NORMANDY BEACH,NJ,1929,NA,40.0022816,-74.0611029
NORMAN'S STORE,TN,1878,1894,NA,NA
NORTH BECKET,MA,1839,1866,42.2788229,-73.0602405
NORTH BINGHAM,PA,1878,1981,41.9872904,-77.7616602
NORTH BLANDFORD,MA,1828,1905,42.2103675,-72.9814907
NORTH BREWSTER,MA,1890,1928,41.747332,-70.0597399
NORTH CHESTERVILLE,ME,1848,1934,44.5945066,-70.1120039
NORTH GAGE,NY,1831,1906,43.2256249,-75.1259954
NORTH GLENSIDE,PA,1914,1931,40.1189989,-75.1712865
NORTH GREENSBOROUGH,VT,1857,1888,NA,NA
NORTH GREENWICH,NY,1826,1907,43.1586864,-73.4856688
NORTH HANCOCK,ME,1844,1927,44.5006334,-68.2550154
NORTH MOUNT PLEASANT,MS,1837,1871,34.9559261,-89.5159118
NORTH NEWPORT,NH,1877,1964,43.3886849,-72.2145327
NORTH ORANGE,MA,1845,1964,42.5882127,-72.3098496
NORTH PARMA,NY,1851,1896,43.2881161,-77.7933423
NORTH PENSACOLA,FL,1948,1949,30.6085265,-87.339976
NORTH RAYMOND,NH,1833,1836,NA,NA
NORTH RIDGE,NY,1851,1901,43.2125562,-78.8258709
NORTH ROSE,NY,1863,NA,43.1851967,-76.8917014
NORTH RUTLAND,MA,1852,1907,42.430646,-71.975909
NORTH SCITUATE,MA,1872,NA,42.2173234,-70.7739311
NORTH TUNBRIDGE,VT,1853,1911,43.9147888,-72.478432
NORTH WINN,ME,1858,1859,45.452471,-68.4197618
NORTH WOLFBORO,NH,1835,1915,43.6536886,-71.1342341
NORTH WOODBURY,CT,1889,1961,41.5448376,-73.2095098
NORTHCUTT,MO,1912,1941,38.1225486,-90.9662476
NORTHFIELD CHURCH,CT,1827,1838,NA,NA
NORTHVILLE,MO,1861,1863,NA,NA
NORTHVILLE,TN,1878,1902,35.9528465,-84.9560647
NORTHWOOD CENTER,NH,1864,1963,43.2173039,-71.2067309
NORTON,MO,1879,1954,39.1961349,-93.1349221
NORWAY,NY,1813,1929,43.2084024,-74.9521005
NOVETTA,GA,1891,1905,NA,NA
NOXUBE,AR,1897,1904,33.145411,-93.1043314
NUANGOLA,PA,1898,NA,41.1550825,-75.978256
NUNEZ,LA,1893,1954,29.9913171,-92.2287389
NUNLEY,AR,1904,1917,34.5406622,-94.1602075
NUNNALLY,GA,1892,1901,NA,NA
O.K.,MS,1876,1911,NA,NA
OAK,AL,1905,1923,30.3179784,-87.7063754
OAK GROVE,GA,1823,1837,33.2084592,-83.805179
OAK PLANE,PA,1840,1840,NA,NA
OAK SUMMIT,NY,1890,1918,NA,NA
OAKES,NY,1884,1938,41.6881491,-73.9498601
OAKLAND,AL,1850,1905,34.8417541,-87.7989197
OAKLAWN,MS,1885,1900,32.005157,-90.9978839
OAKLEY,MS,1858,1867,NA,NA
OAKMAN,GA,1908,NA,34.5668984,-84.7086307
OAK'S MILLS,ME,1828,1831,45.1245055,-68.6078056
OAKVALE,MS,1856,1869,31.4385058,-89.9645268
OAKVILLE,TN,1850,1853,NA,NA
OAKWOOD,GA,1898,NA,34.2312704,-83.8841669
OBEYVILLE,PA,1874,1876,NA,NA
O'BRIEN,GA,1884,1889,NA,NA
OCEANVILLE,NJ,1874,NA,39.4727384,-74.4598776
OCIE,MO,1908,1967,36.5586752,-92.7590582
ODELL,LA,1898,1918,NA,NA
OGLESBY,TN,1890,1902,36.0400605,-86.7436098
OHIOPYLE,PA,1886,NA,39.8679693,-79.4927871
OHL,PA,1886,1933,41.0833981,-79.1608712
OIL CITY,AR,1909,1910,NA,NA
OIL CREEK,NY,1821,1824,42.2168757,-78.2494658
OIL MILL VILLAGE,NH,1847,1894,NA,NA
OKAY,AR,1892,1900,NA,NA
OKEAN,AR,1895,1950,36.1692343,-90.8142829
OKEECHOBEE,FL,1911,NA,27.242906,-80.8183071
OKRA,MS,1899,1900,NA,NA
OLD HICKORY,PA,1838,1869,41.9089631,-76.8888491
OLD TOWN,TN,1823,1910,36.5289688,-83.738804
OLD TOWN,AR,1838,1878,34.3864921,-90.754275
OLD TOWN,FL,1857,NA,29.5991334,-82.976399
OLD WELL,CT,1842,1842,41.0937079,-73.4187303
OLDHAM,AR,1846,1892,NA,NA
OLDTOWN,AR,1902,1918,34.3864921,-90.754275
OLEY,PA,1836,NA,40.3875936,-75.7893625
OLIVE BRANCH,MS,1846,NA,34.9497985,-89.8335452
OLIVE HILL,MO,1910,1912,38.6516791,-94.0071638
OLIVER,AR,1903,1932,34.9317659,-94.2607675
OLIVIA,AL,1886,1892,NA,NA
OLLIE,MS,1900,1903,NA,NA
OLYMPIC,NY,1885,1896,NA,NA
OMAR,TN,1884,1904,NA,NA
ONEONTA,NY,1832,NA,42.4568704,-75.0572111
ONEONTA,AL,1889,NA,33.9502912,-86.4721098
ONKILLOGEE,GA,1829,1830,NA,NA
ONTARIO,NY,1823,NA,43.2225824,-77.2839863
OPHIR,AR,1888,1909,34.4403757,-93.6113013
ORANGE,MO,1894,1903,37.0450559,-93.7168692
ORANGE,MA,1845,NA,42.5882127,-72.3098496
ORANGE PORT,FL,1867,1867,NA,NA
ORE VALLEY,PA,1874,1876,39.9314882,-76.6571893
OREBED,PA,1884,1885,NA,NA
ORFORD,NH,1795,NA,43.9075721,-72.134644
ORLEANS,GA,1899,1900,33.6273327,-84.0868594
ORLINDA,TN,1882,NA,36.5984434,-86.7112076
ORME,TN,1902,1965,35.0120262,-85.8046966
ORMOND,LA,1832,1833,29.9538159,-90.3881369
ORNEVILLE,ME,1844,1904,45.1732352,-68.9703826
ORRINGTON,NY,1824,1840,NA,NA
ORRSTOWN,PA,1836,NA,40.058334,-77.6102346
ORVISTON,PA,1909,1968,41.1064519,-77.752218
OSAGE,TN,1889,1903,36.3558916,-88.4117126
OSCAR,LA,1895,NA,30.6140776,-91.4601117
OSCEOLA,LA,1906,1935,30.6507436,-90.3114754
OSSINING,NY,1901,NA,41.1601637,-73.8646686
OSSWITECHEE,GA,1880,1883,NA,NA
OSWEGO,SC,1891,1981,34.0073786,-80.2875782
OTHELLO,TN,1883,1890,NA,NA
OTSELIC,NY,1817,NA,42.7225677,-75.7199101
OTSELIC CENTRE,NY,1872,1910,42.7011787,-75.7457448
OTTER CREEK,MO,1853,1888,NA,NA
OTTO,SC,1882,1883,NA,NA
OTTO GLEN,PA,1887,1895,NA,NA
OURTOWN,MS,1901,1903,NA,NA
OVERTON,TN,1824,1827,NA,NA
OVID,AR,1904,1908,NA,NA
OWENO,NJ,1884,1884,41.0887072,-74.1437552
OWENSBORO,FL,1886,1906,NA,NA
OWLET,AR,1889,1896,NA,NA
OXANNA,AL,1884,1902,33.6492705,-85.837743
OXFORD,GA,1843,NA,33.6224706,-83.86786
OXLY,MO,1900,NA,36.5947061,-90.6882648
OYSTER BAY,NY,1806,NA,40.8741099,-73.5331757
OZELIA,AL,1900,1913,32.8215157,-85.8660718
PACIFIC,MO,1854,NA,38.4818568,-90.7450014
PACKERVILLE,CT,1835,1911,41.6664875,-71.9522961
PACKSVILLE,SC,1850,1900,33.7387724,-80.3573043
PACTOLUS,AR,1880,1905,36.3675779,-94.5360515
PAHOKEE,FL,1918,NA,26.822455,-80.6680825
PAILO,TN,1886,1907,35.4706225,-85.3199645
PAINTER'S CROSS ROADS,PA,1815,1843,39.8809441,-75.5468704
PALESTINE,MO,1835,1849,38.832245,-92.8085249
PALL MALL,TN,1832,NA,36.5416906,-84.9583603
PALM,PA,1866,NA,40.4274273,-75.5333855
PANSY,MS,1896,1909,33.0187405,-89.3839601
PANTHER CREEK,GA,1875,1876,34.698984,-83.4215551
PAOLI,PA,1826,NA,40.0426097,-75.4862957
PARADISE,TN,1859,1866,NA,NA
PARALOMA,AR,1907,1954,33.7978962,-94.0190798
PARIS,LA,1879,1880,NA,NA
PARKERTON,MO,1897,1907,40.1283447,-93.660776
PARKHILL,NH,1881,1908,NA,NA
PARTON,TN,1900,1903,NA,NA
PASCHELL'S,TN,1833,1835,NA,NA
PASS MANCHAC,LA,1866,1880,NA,NA
PATERSON,NJ,1812,NA,40.9141038,-74.1667771
PATCHIN'S MILLS,NY,1828,1854,NA,NA
PATTISON'S STORE,TN,1873,1874,NA,NA
PAULINE,MO,1886,1902,NA,NA
PAULK'S MILLS,TN,1876,1878,35.2570245,-88.1925348
PAULSBORO,NJ,1844,NA,39.8326763,-75.2414918
PAVILION,NY,1825,NA,42.8750275,-78.0233241
PAW PAW,AR,1858,1860,NA,NA
PAWLET,VT,1805,NA,43.3469042,-73.1775897
PAWLING,PA,1869,1910,NA,NA
PAXTANG,PA,1898,1917,40.2589785,-76.8319167
PAXTONVILLE,PA,1871,NA,40.7716163,-77.0861322
PAYNE,AL,1902,1912,NA,NA
PEA RIDGE,GA,1846,1850,32.3190398,-84.5171411
PEALER'S,PA,1837,1857,NA,NA
PEAR TREE,TN,1840,1841,NA,NA
PEARL,AR,1889,1898,NA,NA
PECKVILLE,PA,1859,NA,41.4799035,-75.5832271
PEDRO,AR,1906,1918,36.1684131,-94.404102
PEDRO,AR,1902,1903,NA,NA
PEEL,AR,1885,NA,36.4325873,-92.7691139
PEELING,NH,1819,1840,43.9775681,-71.6850802
PEGRAM,AL,1890,1898,34.7792567,-88.1000395
PEKIN,AR,1857,1867,NA,NA
PEKIN,PA,1904,1914,NA,NA
PELAHATCHEE DEPOT,MS,1859,1890,32.4195872,-89.9575818
PEMBROKE,ME,1832,NA,44.9495837,-67.1782006
PENN,PA,1922,NA,40.32826,-79.6400828
PENN TOWNSHIP,PA,1828,1837,40.1001105,-75.0079476
PENNELTON,GA,1898,1903,NA,NA
PENNSVILLE,NJ,1844,NA,39.6438519,-75.516821
PEORIA,FL,1886,1932,30.1144068,-81.7892645
PERCY,NH,1887,1974,44.6231087,-71.3920263
PERCY'S CREEK,MS,1828,1867,31.1612845,-91.4295594
PERDIDO,AL,1923,NA,31.00694,-87.6264224
PERDUE HILL,AL,1876,NA,31.5160586,-87.4964399
PERKINS  CREEK,MO,1851,1864,NA,NA
PERKINSVILLE,VT,1828,NA,43.4002302,-72.5140049
PERTH AMBOY,NJ,1842,NA,40.5102648,-74.2713226
PERTZ,MO,1900,1906,37.072551,-91.4348589
PERUOUE,MO,1888,1979,38.868384,-90.6081775
PETERSBURGH,AR,1856,1866,NA,NA
PHILADELPHIA,PA,1775,NA,39.9532276,-75.1849271
PHOSPHATE,TN,1899,1903,36.4542119,-86.4086034
PICKARD,GA,1895,1953,32.9212419,-84.4138097
PICKENS,AR,1932,NA,33.8438012,-91.4827268
PICNIC,FL,1880,1916,27.7625295,-82.1456439
PIERREPART,LA,1906,1907,29.9539916,-91.2123641
PIERREPONT MANOR,NY,1843,NA,43.7352131,-76.0590721
PIGEON  CREEK,AL,1856,1973,31.6576587,-86.5071902
PIKE COURT HOUSE,AL,1825,1833,31.8027085,-85.9409081
PIKE STATION,NH,1880,1903,44.030896,-72.007753
PIKEVILLE,MS,1844,1859,33.8984469,-88.7297726
PINY,PA,1837,1909,41.1388904,-79.4708018
PINE,NY,1832,1856,43.2586804,-75.6387931
PINE BLOOM,GA,1874,1881,NA,NA
PINE CASTLE,FL,1879,1955,28.455962799999998,-81.3642648
PINE FLAT,AL,1894,1907,31.839041,-86.889425
PINE GROVE,LA,1872,NA,30.7096407,-90.7519473
PINE GROVE,AL,1884,1907,32.0359875,-85.5888342
PINE HILL,AL,1827,1829,NA,NA
PINE LEVEL,GA,1836,1860,NA,NA
PINE RIDGE,AR,1936,1973,34.5830033,-93.902536
PINE STAR,AR,1912,1917,NA,NA
PINE VALLEY,NY,1850,NA,42.2280544,-76.8444687
PINEDA,FL,1895,1920,28.2372327,-80.6783869
PINEVILLE,NY,1828,1829,44.0882251,-73.5223225
PINIER,GA,1856,1859,NA,NA
PINSON,AL,1895,NA,33.6978647,-86.6803381
PISGAH,LA,1894,1901,32.8601417,-92.6340405
PITTSBURG,GA,1900,1946,34.859522,-85.4332943
PITTSBURG,PA,1788,NA,40.4581868,-80.0198865
PITTSFIELD,NY,1804,1810,42.638685,-75.2812794
PITTSVIEW,AL,1903,NA,32.1882069,-85.1631157
PLAINFIELD,NY,1809,1854,42.8284079,-75.1947025
PLAINS,GA,1890,NA,32.0329679,-84.3946109
PLAINVIEW,AR,1907,NA,34.9885205,-93.298385
PLAINVILLE,NJ,1872,1903,40.4662157,-74.682104
PLANT CITY,FL,1884,NA,27.9868873,-82.11671
PLATTSBURG,NY,1797,NA,44.6994873,-73.4529124
PLEASANT,GA,1826,1828,NA,NA
PLEASANT GROVE,TN,1827,1860,35.4795186,-86.9830602
PLEASANT GROVE,AL,1828,1909,33.1403995,-87.9247401
PLEASANT GROVE,AR,1930,NA,35.8171759,-91.9100616
PLEASANT HILL,TN,1852,1853,36.0320061,-88.9889493
PLEASANT MOUND,TN,1855,1897,NA,NA
PLEASANT PRAIRIE,MO,1839,1873,37.481153,-93.427419
PLEASANT PRAIRIE,AR,1875,1875,NA,NA
PLEASANT SPRING,AL,1831,1833,NA,NA
PLEASANT VALLEY,AL,1838,1874,31.6465492,-88.1475089
PLEASANT VIEW,AR,1840,1842,NA,NA
PLEASANTFIELD,AL,1901,1907,33.666776,-87.3022245
PLUM BROOK,NY,1876,1932,44.8356082,-74.9068645
POCONO LAKE,PA,1901,NA,41.1156585,-75.5528373
POCONO MANOR,PA,1904,NA,41.1000898,-75.3587949
POINT FARM,LA,1875,1876,29.4766075,-90.5286968
POINT MICHAEL,LA,1854,1874,29.5218828,-89.7336763
POINT PLEASANT,MO,1820,1979,36.4525632,-89.5745222
POINT WASHINGTON,FL,1873,NA,30.3701993,-86.1149405
POMPEY WEST HILL,NY,1816,1825,NA,NA
POND COVE,ME,1900,1901,43.5964728,-70.2286584
POND SPRING,GA,1851,1905,34.8222999,-85.325513
POND TOWN,AL,1858,1866,NA,NA
POND TOWN,GA,1832,1895,NA,NA
PONT,PA,1889,1904,41.8514445,-80.3056181
PONTIAC,MO,1887,NA,36.5156205,-92.603776
POORE,TN,1899,1900,NA,NA
POPE MILLS,NY,1849,1936,44.4847829,-75.5807845
POPLAR SPRING,TN,1853,1905,35.7828431,-88.1958736
POPLAR SPRING,MS,1846,1904,NA,NA
POPLAR SPRINGS,GA,1850,1873,34.2162067,-83.8373983
PORT CRANE,NY,1842,NA,42.1641605,-75.8350429
PORT EWEN,NY,1857,NA,41.9052802,-73.9775147
PORT HENRY,NY,1829,NA,44.0484691,-73.4605735
PORT PERRY,PA,1850,1930,40.3909024,-79.8494928
PORT RICHMOND,NY,1850,1917,40.6330584,-74.137181
PORT SEWALL,FL,1914,1944,27.1861598,-80.1894901
PORT VINCENT,LA,1833,1835,30.3329717,-90.8512085
PORTAGE DES SIOUX,MO,1819,NA,38.9249386,-90.3423857
PORTAGEVILLE,MO,1873,NA,36.427145,-89.6996561
PORTER,FL,1884,1888,30.4036367,-85.5342839
PORTER,MA,1898,1903,42.1967669,-70.9264342
PORTERSBURGH,PA,1888,1890,NA,NA
PORTWAY,NY,1895,1897,NA,NA
POST OAK LEVEL,AL,1822,1828,NA,NA
POTSDAM,MO,1894,1918,38.577267,-91.6143341
POTTS GROVE,PA,1830,NA,40.9942247,-76.7902029
POTTER,AR,1882,1957,34.553717,-94.3391027
POTTER HILL,RI,1848,1954,41.4137107,-71.7989574
POTTS,TN,1883,1890,NA,NA
PRAIRIE,AL,1829,1833,NA,NA
PRAIRIE LANDING,LA,1876,1890,NA,NA
PRAIRIE LEA,MO,1858,1859,NA,NA
PRATT CITY,AL,1893,1908,33.5401055,-86.8688808
PRENTISS,ME,1859,1973,45.4917309,-68.081681
PRICE'S STORE,SC,1811,1820,NA,NA
PRIMM,TN,1898,1945,35.8209003,-87.2500097
PRISON STATION,MA,1879,1879,NA,NA
PRITCHARDVILLE,SC,1876,1954,32.2379783,-80.9642766
PROCTOR,AL,1879,1880,NA,NA
PROCTOR,AL,1889,1905,NA,NA
PROFILE FALLS,NH,1892,1900,NA,NA
PROHIBITION,LA,1886,1906,NA,NA
PROSPECT  HILL,MO,1848,1864,NA,NA
PROVIDENCE,TN,1888,1888,35.6500746,-89.0642311
PROVIDENCE,GA,1848,1900,31.9943577,-84.3751485
PROVIDENCE,MS,1872,1891,33.713729,-89.6203585
PROVIDENCE MEETING HOUSE,PA,1824,1828,NA,NA
PROWELLSVILLE,PA,1823,1826,NA,NA
PULLUM,TN,1883,1894,NA,NA
PULVER'S CORNERS,NY,1830,1872,41.9767589,-73.5845696
PYATT,TN,1900,1905,NA,NA
PYLAND,MS,1907,1942,33.8840018,-89.1075646
QUAID,LA,1939,1959,31.6757247,-91.8126277
QUARRY GIENN,PA,1890,1894,41.8059082,-76.4635529
QUARTZ,GA,1899,1932,NA,NA
QUAY,GA,1904,1904,NA,NA
QUEBEC,MO,1887,1889,NA,NA
QUENTIN,MS,1920,1980,31.506283,-90.7464894
QUICK,SC,1887,1890,34.5982092,-79.5639392
QUINAPOXET,MA,1882,1929,42.3778695,-71.8509061
QUINCY,NY,1825,1830,42.2670023,-79.7106019
QUINFIELD,GA,1851,1852,NA,NA
QUINN,AL,1881,1884,31.9504294,-88.1244588
QUITMAN,LA,1848,1849,NA,NA
QUITMAN,MS,1836,NA,32.0394201,-88.7278927
RABUN GAP,GA,1857,1858,34.9574173,-83.386043
RAE,TN,1883,1883,NA,NA
RAGAN'S,GA,1811,1811,NA,NA
RAIBORN'S CREEK,SC,1832,1853,NA,NA
RAIFORD,AR,1891,1911,NA,NA
RAIFORD,FL,1897,NA,30.0635653,-82.2363596
RAILROAD MILLS,NY,1893,1907,43.0270076,-77.4822171
RALEIGH,AL,1857,1906,33.2162307,-87.8622385
RAMROD KEY,FL,1917,1951,NA,NA
RAMSEYVILLE,PA,1889,1915,NA,NA
RANDALLS BLUFF,MS,1858,1904,33.0640159,-88.9056123
RANDOLPH,NY,1821,1822,NA,NA
RANKIN,AR,1891,1904,33.7126193,-94.1474175
RANS,TN,1892,1904,35.3956326,-86.329159
RARITAN,NJ,1852,NA,40.5681488,-74.6312014
RASAR,TN,1882,1957,35.6089729,-83.9574028
RASH,AL,1901,1956,34.8739716,-85.8949773
RATHBONE,MO,1892,1904,NA,NA
RATHBONE,AL,1892,1894,NA,NA
RATTAN,LA,1894,1935,31.3474039,-93.5279526
RAUBSVILLE,PA,1820,1967,40.6356554,-75.1929533
RAWLINGSVILLE,AL,1837,1871,34.4611985,-85.6985777
RAYLE,GA,1892,NA,33.7895865,-82.9006922
RED BLUFF,MS,1860,1868,NA,NA
RED BOILING SPRINGS,TN,1847,NA,36.5331889,-85.8502957
RED BONE,GA,1856,1860,32.7426366,-84.4132524
RED BRIDGE,TN,1824,1865,36.3455556,-83.2427041
RED BUD,MS,1858,1867,32.7579116,-88.8972759
RED CREEK,MS,1860,1867,NA,NA
RED LEVEL,GA,1887,1905,32.7269248,-83.1451928
REDCLYFFE,PA,1872,1913,41.394785,-79.1522623
REDD,MO,1913,1913,36.8478308,-90.0606514
REDDELL,LA,1909,NA,30.6751974,-92.4273552
REDEMPTION,LA,1901,1908,NA,NA
REDFERN,PA,1894,1903,NA,NA
REDMAN,AL,1846,1864,34.660644,-86.3288745
REDMAN MILLS,PA,1880,1914,NA,NA
REECE'S MILLS,AL,1855,1867,NA,NA
REED CORNERS,NY,1841,1906,42.8364544,-77.2144227
REEDY CREEK,TN,1833,1845,36.5842697,-82.3179176
REFUGE,AL,1886,1918,33.6501022,-86.1171952
REHOBOTH,GA,1836,1866,NA,NA
REIDS SWITCH,MS,1902,1905,34.6312104,-89.2731292
REMLEYS,SC,1920,1944,32.8543417,-79.9031411
RENFROE,AL,1880,1955,33.4312194,-86.201641
REVERIE,TN,1883,1986,35.538137,-89.9900881
REX,AL,1901,1901,NA,NA
REX,AR,1898,1933,35.6025784,-92.7059973
REXFORD FLATS,NY,1825,1911,42.8531321,-73.8879008
REYDEL,AR,1842,NA,34.1564138,-91.5654198
REYNO,AR,1886,NA,36.3625513,-90.7544418
RHEATOWN,TN,1824,1901,36.2312148,-82.6957077
RHODES STORE,FL,1886,1894,NA,NA
RICHARDSON,LA,1898,1914,30.8546277,-90.213143
RICHARDSONS,TN,1896,1934,35.5114708,-89.9400866
RICHMOND,FL,1891,1908,NA,NA
RICHMOND FURNACE,MA,1873,1925,42.3611968,-73.3806651
